ID,Name,Lat,Lon,Population,Area,Distance travelled,Road length
37091,Harrisburg (SD),43.426252,-96.700563,3071,3.71663293833,,
35542,Greenwood (AR),35.214307,-94.255194,8619,16.3972147265,,
51688,Louisville (GA),33.004542,-82.399173,3273,6.1900715837,,
05815,Baxter Springs (KS),37.021334,-94.737759,5089,11.3829977449,,
61516,Neodesha (KS),37.425454,-95.684282,2570,3.70109300967,,
73396,Rapid City (SD),44.0837,-103.244558,81251,109.434767626,2582997.12,589.0
16075,Cherryville (NC),35.382722,-81.381857,6340,15.1229405763,,
57844,Moab (UT),38.559794,-109.533629,6883,11.0825591241,,
72424,Prineville (OR),44.310121,-120.844314,10905,16.3790848098,,
35785,Grove (OK),36.592166,-94.795112,7158,22.0459787952,,
27280,El Reno (OK),35.522928,-97.958573,15069,18.4769751791,,
76960,Russellville (KY),36.844789,-86.892016,6714,17.8087582467,,
80335,Seaside (OR),46.00444,-123.909966,8489,13.5715376982,,
23446,Denmark (SC),33.317242,-81.137059,3781,7.02663774334,,
78850,Sanford (ME),43.435952,-70.764267,13584,16.759813062,,
06112,Beaver Dam (WI),43.465787,-88.83322,17833,20.4142862857,,
88489,Trenton (TN),35.96438,-88.939807,3852,5.85596311747,,
89177,Tuttle (OK),35.268795,-97.697183,2517,10.0206639989,,
26578,El Dorado Springs (MO),37.869789,-94.023114,3454,4.95205726696,,
96373,Winnemucca (NV),40.950382,-117.741379,10268,23.6206915663,,
07462,Beulah (ND),47.265005,-101.781735,2949,3.57936356848,,
13294,Canton (IL),40.564329,-90.032578,14818,16.7106032879,,
10891,Browns Mills--Fort Dix (NJ),40.020284,-74.590178,37985,74.3533786715,,
82198,Sioux Center (IA),43.078023,-96.171518,6649,9.40424682863,,
24715,Dublin (GA),32.53722,-82.919988,20999,58.1245131722,,
55765,Mayfield (KY),36.735426,-88.64227,11356,19.6398798407,,
06598,Bellevue (IA),42.26479,-90.431551,2543,4.19060076252,,
82441,Sleepy Eye (MN),44.296742,-94.722119,3479,3.94973186826,,
19153,Columbus (KS),37.170063,-94.844214,3272,5.17738623256,,
68482,Pensacola (FL--AL),30.48527,-87.253422,340067,602.495984167,18995087.232,2856.0
48340,Lawrenceville (IL),38.731654,-87.678856,7067,14.0998952727,,
32302,Galena (KS--MO),37.069883,-94.635264,2673,4.08182126189,,
32653,Gastonia (NC--SC),35.256189,-81.152167,169495,359.055231712,6767291.52,829.0
09028,Boone (IA),42.056693,-93.880639,12793,24.0169597471,,
88624,Truckee (CA),39.338652,-120.172303,12139,27.4564639577,,
61192,Nashville (AR),33.941924,-93.851658,4488,8.74120987238,,
92890,Watsonville (CA),36.937939,-121.772779,73534,59.1553284401,1503127.296,177.0
35434,Greenville (PA),41.415097,-80.362757,10771,18.5339549176,,
55900,Meadville (PA),41.619236,-80.152425,23887,46.5213664379,,
42454,Jaffrey (NH),42.800994,-72.021257,3003,6.24446133402,,
60355,Mount Vernon (IN),37.938756,-87.892756,7011,13.216709327,,
82225,Sioux City (IA--NE--SD),42.482112,-96.402243,106494,140.817653559,3471355.008,745.0
40024,Hope (AR),33.664172,-93.59268,9991,19.2151217906,,
05761,Battle Mountain (NV),40.638336,-116.946269,3520,5.04011686271,,
16642,Chittenango (NY),43.048504,-75.878615,5083,5.49077479391,,
86210,Sylvan Beach (NY),43.165078,-75.773153,3451,8.92768901633,,
32788,Geneseo (NY),42.796608,-77.80851,8329,10.4661419539,,
25660,Eastland (TX),32.398199,-98.825386,3711,4.23722054851,,
69886,Plain City (OH),40.105106,-83.273749,4223,4.09736119055,,
97156,Woodstock (VA),38.866753,-78.525139,7017,13.3746986018,,
51607,Louisburg (KS),38.617278,-94.676962,3930,5.47005488903,,
69373,Pikeville (KY),37.485906,-82.545198,7936,17.4124900658,,
52001,Lula (GA),34.389996,-83.672359,2591,7.37887612635,,
25282,Dyer (TN),36.074642,-89.004537,3248,6.66144941978,,
60139,Mount Pleasant (TN),35.539122,-87.206639,3507,6.71065919388,,
71074,Porterville (CA),36.074032,-119.031662,70272,53.1310160954,1126540.8,211.0
22717,Decatur (IL),39.845729,-88.937174,93863,153.327296132,2956364.928,721.0
39322,Holbrook (AZ),34.913822,-110.155308,3800,6.22115144103,,
25444,Eagle Lake (TX),29.586844,-96.331945,3628,5.50372473446,,
52390,McAllen (TX),26.243955,-98.172127,728825,927.184663643,20662367.616,3762.0
41833,Ishpeming (MI),46.495731,-87.660607,12301,16.7080132998,,
59910,Mount Holly Springs (PA),40.114988,-77.200752,4416,9.16078794626,,
06335,Belfair (WA),47.448543,-122.857433,3331,7.7440644499,,
02359,Andalusia (AL),31.311564,-86.479556,6655,14.9261014799,,
64810,Odem (TX),27.942779,-97.5864,2775,4.12844104788,,
97331,World Golf Village (FL),29.964735,-81.502379,6622,16.7028333236,,
46774,Lake Isabella (CA),35.613189,-118.478368,3271,6.8660584805,,
43696,Kalaheo (HI),21.91523,-159.518555,14840,20.5308357506,,
74125,Refugio (TX),28.307268,-97.275165,2903,3.76843270054,,
77618,St. James (NC),33.938824,-78.113638,2604,8.14810259512,,
77161,Sahuarita--Green Valley (AZ),31.893608,-110.992493,40691,59.1812283212,,
64675,Ocean Shores (WA),46.974323,-124.153126,5218,14.2837844285,,
69778,Pittsfield (MA),42.481061,-73.22006,59124,86.7671916844,1615781.376,327.0
97345,Worthington (MN),43.623728,-95.60404,12616,13.4290883521,,
25598,East Aurora (NY),42.779875,-78.598786,9841,22.2246879748,,
08326,Bloomfield (IN),39.025952,-86.938663,2521,3.17273543516,,
93322,Waynesboro (PA--MD),39.730275,-77.507627,25912,45.4594713126,,
64351,Oak Harbor (OH),41.511053,-83.145816,2794,3.54310373494,,
20746,Covington (VA),37.781292,-79.985863,8430,20.8260943952,,
10702,Brookshire (TX),29.782343,-95.955077,4486,6.68216932467,,
62515,New London (WI),44.389499,-88.74935,7643,9.6969154851,,
63028,New Tazewell (TN),36.45035,-83.591895,4598,13.4368583164,,
01738,Altavista (VA),37.113627,-79.294132,4663,14.4106938459,,
38431,Hereford (TX),34.825597,-102.399138,15941,16.573333918,,
60004,Mount Morris (NY),42.737647,-77.87954,4028,8.5184708949,,
64054,Norwalk (OH),41.249556,-82.615958,20806,27.3140146116,,
75610,Rochester (IN),41.058441,-86.2024,7309,11.1369488744,,
21610,Cuero (TX),29.105099,-97.289519,8099,13.8408964616,,
95553,Williamstown (KY),38.636226,-84.575923,4491,13.0302301831,,
69427,Pinckneyville (IL),38.078847,-89.375039,5670,6.96188804058,,
28414,Everett (PA),40.013306,-78.373013,3220,4.96500720751,,
84124,Springtown (TX),32.968616,-97.683875,2623,5.59955429455,,
00676,Air Force Academy (CO),38.985935,-104.858324,5512,6.45943034718,,
94024,Westfield (NY),42.326839,-79.579444,3015,5.6125042351,,
80119,Scottsburg (IN),38.692563,-85.795532,11434,18.7981337048,,
85438,Sullivan (IN),39.098674,-87.406948,4518,5.73423367628,,
67969,Pawhuska (OK),36.664251,-96.327241,3623,7.80622416455,,
19396,Comanche (TX),31.901532,-98.603219,3988,6.37396073954,,
09055,Boone (NC),36.212553,-81.651366,22763,34.8793698819,,
12120,Cache (OK),34.63018,-98.629863,2600,3.98599170181,,
45112,King George (VA),38.268822,-77.212041,3303,8.41487137048,,
21928,Dahlgren (VA--MD),38.342418,-77.026456,3515,16.7209632403,,
05734,Battlement Mesa (CO),39.453934,-108.05174,5071,7.57830521084,,
09190,Boonville (MO),38.971691,-92.74673,9229,14.8302719198,,
53605,Mammoth Lakes (CA),37.641312,-118.979362,7693,8.60394050254,,
45844,La Center (WA),45.866359,-122.669733,2759,2.74538739696,,
81523,Sheridan (AR),34.307217,-92.403857,4458,8.95099890932,,
41347,Indio--Cathedral City (CA),33.748475,-116.346207,345580,372.416980373,11341047.168,1209.0
90001,Valentine (NE),42.873792,-100.552934,2713,4.77334808735,,
04600,Bad Axe (MI),43.802432,-82.998022,3490,6.45943034718,,
27991,Estrella (AZ),33.328739,-112.442969,11108,18.8758333481,,
83872,Springfield (GA),32.367261,-81.313247,3649,6.33252092977,,
42832,Jean Lafitte (LA),29.726751,-90.125037,2700,4.87176763554,,
10000,Brent (AL),32.946488,-87.1526,5525,12.4941026443,,
62461,New Lebanon (OH),39.741804,-84.394573,4078,4.7603981468,,
05221,Barre--Montpelier (VT),44.198429,-72.517883,21675,45.8686894341,,
22879,Defiance (OH),41.28448,-84.355116,18306,35.0710290021,,
17722,Cleveland (TN),35.175401,-84.851226,66777,141.410760836,3118908.672,522.0
85573,Sultan (WA),47.8753,-121.793179,7982,10.9064399326,,
15130,Chadron (NE),42.828505,-103.004278,5515,4.94169731452,,
01873,Alva (OK),36.801099,-98.664668,5620,6.80389876585,,
54955,Marshall (MI),42.27511,-84.966411,7683,11.8025758188,,
18856,Colorado Springs (CO),38.872965,-104.770602,559409,486.493006693,17181356.544,2579.0
68171,Peaceful Valley (WA),48.942256,-122.140702,3025,3.0561859702,,
70399,Pocahontas (AR),36.267994,-90.981071,5854,7.85543393865,,
44641,Kerrville (TX),30.052084,-99.159519,28810,45.2859421092,,
37000,Harrisburg (IL),37.733752,-88.548961,9463,15.9698666883,,
36028,Gunnison (UT),39.141063,-111.81818,4157,6.08388207118,,
48367,Lawrenceville (VA),36.766423,-77.832506,4032,6.73396908687,,
90640,Village of Oak Creek (Big Park) (AZ),34.780341,-111.771549,5309,7.58607517517,,
41239,Indianola (IA),41.358833,-93.564329,14281,21.8128798652,,
62866,Newport (PA),40.478014,-77.134107,2657,2.0538605715,,
53281,Madisonville (TX),30.954018,-95.909285,4454,10.2693028575,,
70669,Pontiac (IL),40.879426,-88.633863,12323,12.2143839283,,
80578,Selmer (TN),35.172988,-88.591764,3840,12.1056044277,,
54778,Marks (MS),34.208001,-90.284304,3536,6.33511091788,,
41698,Iron River (MI),46.077788,-88.630943,3208,5.2628558402,,
40186,Horse Cave (KY),37.161319,-85.926364,4251,8.73343990805,,
09217,Borger (TX),35.666797,-101.399608,13574,32.5457905945,,
48785,Leesburg (GA),31.737686,-84.172487,3631,9.50784635304,,
95364,Williams (AZ),35.253049,-112.188681,2639,4.6101788364,,
71533,Portsmouth (OH--KY),38.752795,-82.952373,36232,51.5278134551,,
05356,Bartlett (TX),30.796199,-97.433073,2653,2.75056737318,,
57871,Moapa Valley (NV),36.577928,-114.463197,5907,19.0778524207,,
04519,Avon (NY),42.899102,-77.741633,4973,10.0957736541,,
38647,Hickory (NC),35.757151,-81.418866,212195,677.569379533,11236439.808,1840.0
10567,Brookfield (MO),39.783508,-93.076913,4281,7.60679508006,,
13699,Carlinville (IL),39.279167,-89.88026,5953,7.35297624524,,
34975,Greenfield (MA),42.587098,-72.5666,22965,36.5369622725,,
70804,Poplar Bluff (MO),36.763366,-90.416698,20463,40.6679933085,,
00469,Adel (GA),31.145731,-83.429099,6986,15.633168234,,
30412,Forks (WA),47.950831,-124.382454,3940,6.29367110812,,
05923,Bay Minette (AL),30.883529,-87.775532,7486,14.8743017177,,
01117,Albion (NY),43.245788,-78.193603,8171,7.63787493738,,
68779,Perryville (MO),37.723191,-89.869477,8419,16.8737725388,,
58762,Monticello (IN),40.765847,-86.768312,8634,16.7986628836,,
69292,Pierre (SD),44.376647,-100.328952,14425,29.2409657657,,
61597,Nevada (IA),42.016121,-93.453302,6728,8.47962107324,,
33679,Globe (AZ),33.406305,-110.797843,13515,19.9040586279,,
78283,Salina (KS),38.81492,-97.612054,47493,59.3936073462,,
91741,Warden (WA),46.96785,-119.041925,2679,2.3050894182,,
04195,Augusta (ME),44.265231,-69.782328,22637,44.8844939521,,
13051,Cameron (MO),39.742652,-94.238676,9782,10.4868618588,,
84277,Stanford (KY),37.539395,-84.661709,4183,8.29055194119,,
70480,Poinciana (FL),28.188728,-81.495107,41922,44.2680767819,,
93052,Wauseon (OH),41.552118,-84.139234,7193,9.85490475983,,
06247,Beebe (AR),35.069171,-91.893049,6714,11.3829977449,,
87652,Tillamook (OR),45.45663,-123.840917,7675,11.3311979827,,
78661,San Diego (CA),32.928728,-117.128799,2956746,1896.93578188,105954380.928,5252.0
71884,Prairie du Sac--Sauk City (WI),43.277675,-89.72806,7733,8.93286899255,,
79390,Santa Isabel (PR),17.972338,-66.418372,10550,12.7013016931,,
33695,Gloucester Courthouse (VA),37.419029,-76.527726,4177,11.3519178876,,
41563,Iowa (LA),30.240252,-93.002571,3252,8.51329091867,,
12943,Camden (ME),44.206567,-69.081419,3968,7.71298459258,,
81766,Sibley (IA),43.402349,-95.744928,2690,2.76610730184,,
03375,Ashland (NE),41.040566,-96.366597,2631,3.2323051617,,
70939,Port Angeles (WA),48.110278,-123.426196,22863,40.3416548066,,
47422,Lampasas (TX),31.06499,-98.185155,6080,8.17659246433,,
76717,Running Springs (CA),34.209475,-117.111613,4811,6.86346849239,,
73261,Raleigh (NC),35.768264,-78.669581,884891,1341.97643949,41228174.592,4293.0
62245,New Concord (OH),39.993115,-81.745463,2949,4.91838742153,,
94780,White Hall (IL),39.440548,-90.405671,4048,5.67466394975,,
63460,North Adams (MA--VT),42.690785,-73.10892,18470,25.3870634575,,
68590,Perry (FL),30.108319,-83.579675,6933,17.7336485915,,
44425,Kennebunk (ME),43.366037,-70.498939,8240,30.5126499279,,
10864,Browning (MT),48.555663,-113.019428,4624,4.85881769499,,
08056,Blackstone (VA),37.078886,-78.000023,3232,4.33305010859,,
98047,Yuma (CO),40.123823,-102.724834,3524,3.97045177315,,
29818,Flagstaff (AZ),35.203032,-111.624792,71957,90.1989259306,2264347.008,308.0
37959,Headland (AL),31.330709,-85.341614,3240,6.01654238031,,
29764,Firebaugh (CA),36.859887,-120.45889,7281,3.79174259353,,
78067,Salamanca (NY),42.160643,-78.727677,5738,8.32422178662,,
30520,Forsyth (MO),36.71569,-93.173816,6836,14.8302719198,,
67105,Palm Bay--Melbourne (FL),28.188173,-80.67466,452791,600.82026186,21653723.52,2687.0
30250,Fordyce (AR),33.81698,-92.418587,3844,10.8054303963,,
78715,Sandpoint (ID),48.268536,-116.548387,10840,21.1602028614,,
15913,Chelan (WA),47.832792,-120.006138,5704,12.6339620022,,
07678,Big Stone Gap (VA),36.872925,-82.760612,8240,16.1071360582,,
02825,Arbuckle (CA),39.016726,-122.060221,2652,1.87256140377,,
71695,Potosi (MO),37.943724,-90.776307,4919,7.13282725587,,
30748,Fort Leonard Wood (MO),37.826359,-92.128126,29257,67.1635716772,,
23500,Denton--Lewisville (TX),33.093039,-97.066276,366174,376.022243823,13953012.48,1665.0
24526,Douglas (GA),31.511685,-82.84868,14154,31.0694973716,,
02413,Anderson (SC),34.520717,-82.660933,75702,191.881859142,2909693.952,612.0
44738,Kewaunee (WI),44.455719,-87.508103,2622,3.356624591,,
50095,Lindsborg (KS),38.575601,-97.674006,3405,3.90311208228,,
40564,Hugo (OK),34.008175,-95.510884,5028,8.45113120403,,
85681,Summit Park (UT),40.762101,-111.571066,6088,8.99243871909,,
97939,Yuba City (CA),39.122927,-121.608318,116719,100.123760369,2896819.2,604.0
28360,Evansville (WI),42.777814,-89.296316,5669,7.97975336795,,
39646,Homedale (ID),43.617986,-116.933383,2731,2.8826567668,,
75270,Riverdale (CA),36.431071,-119.862054,2823,2.30767940631,,
12700,Camano (WA),48.159122,-122.472428,6157,17.1845711121,,
50527,Livermore (CA),37.68507,-121.755683,81624,63.3770090599,4184294.4,285.0
26713,Elizabethtown (NC),34.625681,-78.617108,3085,6.50346014505,,
54253,Many (LA),31.566697,-93.474118,2860,6.10460197606,,
66187,Oskaloosa (IA),41.292047,-92.650129,12545,24.553087286,,
66619,Oxford (OH),39.506743,-84.746191,21376,15.7911575087,,
09703,Brattleboro (VT--NH),42.849384,-72.580458,9980,12.2713636668,,
02912,Arcadia--Southeast Arcadia (FL),27.213341,-81.852437,17490,26.2313995815,,
67213,Palmyra (MO),39.796214,-91.524287,3577,4.8614076831,,
66349,Ottawa (OH),41.023325,-84.046119,5270,12.7038916812,,
72127,Presidio (TX),29.560156,-104.362934,4654,5.59437431833,,
79714,Sault Ste. Marie (MI),46.480388,-84.357643,13114,15.2757498748,,
01333,Alfred (NY),42.256634,-77.784266,4322,3.11575569673,,
72120,Presidential Lakes Estates (NJ),39.908596,-74.575285,3015,3.06136594642,,
13834,Carlyle (IL),38.611183,-89.387204,4301,6.57597981214,,
23554,Denver City (TX),32.967346,-102.835102,4938,6.70288922955,,
79537,Santa Rosa Beach (FL),30.376536,-86.249379,4512,20.1475175103,,
32275,Galena (IL),42.419111,-90.431237,3165,4.75521817058,,
89542,Union City (PA),41.897664,-79.843218,3381,4.9857271124,,
72253,Prince Frederick (MD),38.550994,-76.577747,6357,24.2889084987,,
88813,Tucumcari (NM),35.168921,-103.725145,5283,7.74147446179,,
17992,Clinton (NC),35.002355,-78.328741,9538,20.6862350373,,
51472,Los Banos (CA),37.063074,-120.842627,35917,20.9478238364,,
12835,Cambridge (MN),45.535536,-93.23444,14270,25.6667821734,,
34554,Grantville (GA),33.235944,-84.821733,2571,7.17944704185,,
87571,Ticonderoga (NY),43.845418,-73.429186,2850,4.86658765932,,
14887,Center (TX),31.792988,-94.179967,5234,15.0478309211,,
66538,Owosso (MI),42.994784,-84.16596,22426,29.1399562294,,
03196,Arroyo Grande--Grover Beach (CA),35.119408,-120.607531,52000,59.6189363118,,
95941,Wilton (IA),41.589109,-91.025481,2791,4.24240052473,,
55117,Marshfield (MO),37.340359,-92.907986,6701,11.0514792668,,
24418,Donalsonville (GA),31.04095,-84.874312,2745,7.60420509195,,
15049,Centralia (MO),39.208964,-92.135508,3813,4.73190827758,,
92269,Washington (GA),33.732289,-82.743613,3457,8.23875217898,,
27766,Erie (PA),42.08554,-80.114855,196611,213.013572135,4691237.76,925.0
59329,Morris (IL),41.373469,-88.423222,15668,26.1096701403,,
34151,Gramercy--Lutcher (LA),30.039568,-90.695903,15279,37.2776988721,,
50419,Littlestown (PA),39.745759,-77.084814,6302,9.2203576728,,
07786,Birmingham (AL),33.469106,-86.791975,749495,1372.42433971,41751211.392,4999.0
38350,Henrietta (TX),33.815988,-98.192756,2731,3.4084243532,,
31546,Frederick (OK),34.391193,-99.014399,3899,5.77049350983,,
65080,Oklahoma City (OK),35.504826,-97.524305,861505,1063.53458771,50885847.936,4930.0
05329,Bartlesville (OK),36.745394,-95.956329,38874,63.4521187151,,
23473,Denton (MD),38.870438,-75.822779,4771,11.7818559139,,
55333,Marysville (WA),48.052864,-122.145589,145140,211.897287259,,
74719,Richmond (MO),39.269368,-93.971709,5307,8.95617888554,,
27372,Emajagua (PR),18.010847,-65.911531,9231,14.2501145831,,
06922,Bennington (VT),42.892667,-73.202052,12723,19.7823291867,,
43264,Johnstown (OH),40.150788,-82.688769,4523,4.05074140457,,
07327,Berryville (VA),39.153421,-77.980386,4277,5.11004654169,,
72410,Princeville (HI),22.218483,-159.48504,2653,6.42058052552,,
28981,Fajardo (PR),18.28199,-65.712848,85225,131.561036053,1395301.248,312.0
69967,Plainview (TX),34.193928,-101.713927,25810,36.7752411787,,
86356,Taft (TX),27.978095,-97.39317,4401,3.90052209417,,
11575,Burgettstown (PA),40.379862,-80.390416,3380,6.32734095355,,
89380,Ukiah (CA),39.186235,-123.202585,29709,41.3284402766,,
88705,Tuba City (AZ),36.131185,-111.234168,8858,14.2190347257,,
11377,Buffalo (WY),44.350191,-106.701248,4368,6.15122176205,,
77284,St. Charles (MN),43.969688,-92.062008,2977,4.24499051284,,
50679,Livonia (LA),30.534937,-91.53842,3813,9.99994409401,,
91513,Walterboro (SC),32.903589,-80.665237,9502,22.2039680699,,
92647,Watertown (MN),44.959009,-93.844082,4185,4.835507802,,
55750,Maybrook (NY),41.491679,-74.213238,2959,2.30249943009,,
65269,Omaha (NE--IA),41.234859,-96.034641,725008,702.425495428,21745456.128,2789.0
45032,Kimberling City (MO),36.648016,-93.424196,3172,11.6678964371,,
56224,Menomonie (WI),44.900593,-91.899085,17844,30.1500515924,,
74827,Ridgecrest (CA),35.625981,-117.684072,31155,46.9176346187,,
39511,Hollister (CA),36.841983,-121.392732,42002,29.6398239347,,
52255,Lyndonville (VT),44.528062,-72.007687,2924,5.65653403297,,
19369,Colville (WA),48.542792,-117.895127,4966,11.9139453075,,
12713,Camano North (WA),48.213081,-122.528459,2529,5.15925631579,,
77027,Sabetha (KS),39.902636,-95.798286,2526,4.38743985891,,
73072,Quincy (WA),47.234614,-119.853833,6986,7.63528494927,,
26308,Effingham (IL),39.120894,-88.540198,13800,22.1754782007,,
22015,Dallas (OR),44.921879,-123.30997,15340,13.7839167232,,
10972,Brownsville (TX),25.966448,-97.473579,217585,211.156550659,5021153.28,766.0
82981,Somerton (AZ),32.580192,-114.647366,16988,19.7564293056,,
13618,Carey (OH),40.950435,-83.384422,3575,3.72181291455,,
14860,Celina (OH),40.553648,-84.564783,11259,11.761136009,,
88381,Trenton (GA),34.879831,-85.502036,2850,7.58089519895,,
86221,Sylvania (GA),32.744121,-81.643547,3076,9.29805731611,,
02008,Americus (GA),32.072568,-84.229191,19106,31.4424556595,,
84871,Stevens Point (WI),44.511291,-89.551677,44223,62.4005835423,,
46126,Lafayette--Louisville--Erie (CO),39.99069,-105.103876,79407,102.387409978,2208019.968,366.0
67807,Pascagoula (MS),30.374915,-88.529658,50428,102.402949906,3006254.592,469.0
32221,Gainesville (TX),33.629767,-97.13669,15746,21.3311420767,,
84655,Stayton (OR),44.815998,-122.792584,10291,8.62207041931,,
80497,Seguin (TX),29.57175,-97.968027,24122,40.8700123811,,
27172,Elmwood (IL),40.779891,-89.980505,2660,4.6101788364,,
26497,Eldorado (IL),37.815688,-88.439956,4572,9.45863657895,,
93133,Waverly City (OH),39.12975,-82.982215,7396,15.9569167478,,
28252,Eureka (KS),37.823741,-96.290839,2591,3.82023246275,,
17625,Cleveland (GA),34.589593,-83.753646,4399,12.4966926324,,
69346,Piggott (AR),36.382877,-90.193968,3437,5.20069612555,,
73774,Redding (CA),40.579617,-122.363221,117731,184.041965132,4697675.136,659.0
75286,River Falls (WI),44.86023,-92.613214,15351,19.8393089252,,
98101,Zapata--Medina (TX),26.889081,-99.266192,10719,13.4990180311,,
16480,Chilton (WI),44.029033,-88.156324,3590,4.80183795656,,
75448,Roanoke Rapids (NC),36.450617,-77.648931,24450,42.2375261034,,
13537,Cape Girardeau (MO--IL),37.333123,-89.58096,52900,90.7298734932,,
43993,Kaplan (LA),30.004642,-92.284744,4826,5.59955429455,,
25120,Durand (MI),42.907955,-83.985164,4854,8.4200513467,,
51850,Lowville (NY),43.787392,-75.486193,3562,4.59204891963,,
54064,Mansfield (LA),32.032457,-93.703129,6061,10.4298821203,,
36231,Haleiwa--Waialua--Pupukea (HI),21.570008,-158.126758,13770,14.576453085,,
11755,Burlington (VT),44.471732,-73.151442,108740,159.947305742,5054949.504,732.0
42022,Jackson (AL),31.511215,-87.895483,2920,7.39700604312,,
64594,Oceana (WV),37.681284,-81.624929,2645,4.24499051284,,
81928,Sikeston (MO),36.878681,-89.581255,16536,21.2612123977,,
01441,Allegan (MI),42.530023,-85.849978,6322,12.2221538927,,
85330,Sturgis (SD),44.408783,-103.518293,6583,9.59331596068,,
90811,Vinton (IA),42.166715,-92.024441,5044,6.2651812389,,
46018,Lafayette (IN),40.427209,-86.885007,147725,166.038957777,3728850.048,583.0
80740,Seville (OH),41.014697,-81.869681,7396,17.8527880445,,
73720,Red Bluff (CA),40.172317,-122.226848,18434,23.7035711858,,
43048,Jerome (ID),42.726142,-114.519724,10892,11.4762373169,,
93025,Wausau (WI),44.906757,-89.629632,74632,121.387562755,2975677.056,695.0
11593,Burkburnett (TX),34.082697,-98.56948,10002,13.5326878765,,
74881,Ridge Manor (FL),28.512623,-82.183872,2971,7.82176409321,,
82522,Smithfield (NC),35.530612,-78.35842,27155,61.1858791186,,
26389,El Campo (TX),29.198508,-96.276623,11719,16.2029656183,,
63055,Newton (IL),38.986966,-88.165444,2923,5.87668302235,,
20881,Crawfordsville (IN),40.04364,-86.909951,18012,30.9477679304,,
97453,Wytheville (VA),36.952316,-81.090024,7212,18.3940955596,,
57402,Milton (VT),44.646015,-73.124939,8521,24.7913661921,,
62505,New London (MN),45.299871,-94.958803,3188,7.23901676839,,
41914,Ithaca (NY),42.460464,-76.479152,53661,63.6644977402,1598078.592,290.0
85195,Strasburg (VA),38.993117,-78.357144,7015,9.82900487873,,
65512,Oneonta (NY),42.451956,-75.061477,17229,22.4318870236,,
79822,Savannah (TN),35.218897,-88.234672,8347,20.0050681642,,
75664,Rochester (NY),43.137628,-77.568221,720572,840.370852173,25477524.864,3219.0
64027,Norton--Wise (VA),36.960466,-82.603697,10510,29.4093149929,,
01360,Algoma (WI),44.607208,-87.444363,3070,4.7862980279,,
84115,Springs (NY),40.976183,-72.177786,12604,35.9257250785,,
38485,Hermiston (OR),45.858933,-119.286462,27790,39.7537275055,,
46652,Lake Conroe Northshore (TX),30.465453,-95.558064,2547,4.06628133323,,
42481,Jamestown (NY),42.102361,-79.264399,43404,49.2356739775,,
11620,Burley (ID),42.548475,-113.776279,15977,25.0788548724,,
21934,Dahlonega (GA),34.543306,-83.985631,4812,10.6862909432,,
49177,Le Sueur (MN),44.461791,-93.903327,3763,4.79406799223,,
57069,Mifflintown (PA),40.545602,-77.403115,4372,11.2845781967,,
12133,Cactus (TX),36.039681,-101.999794,3292,1.9036412611,,
10594,Brookhaven (MS),31.589888,-90.44074,10635,22.8592350618,,
97210,Woodville (TX),30.787089,-94.406202,4760,13.1674995529,,
81982,Siloam Springs (AR--OK),36.200137,-94.536012,19326,37.2673389196,,
52039,Luling (TX),29.681389,-97.645811,5379,7.57053524651,,
24094,Dickinson (ND),46.885456,-102.786789,17586,19.5699501617,,
42805,Jeanerette (LA),29.902667,-91.638112,6680,9.53374623415,,
44789,Key Largo (FL),25.011031,-80.529453,18121,35.5993865766,,
10405,Broadway (VA),38.61927,-78.789794,6228,9.3472670902,,
36676,Hanceville (AL),34.068616,-86.77027,2948,6.00100245165,,
78256,Salida (CO),38.535109,-106.007338,6663,12.6805817882,,
48556,Lebanon (MO),37.669549,-92.660851,14046,31.7195843873,,
11971,Butler (MO),38.256012,-94.339322,3875,5.54257455612,,
36946,Harriman--Kingston--Rockwood (TN),35.885037,-84.556988,23515,74.2808590044,,
58664,Montgomery (WV),38.126501,-81.235109,4689,6.0890620474,,
70237,Pleasanton (TX),28.964383,-98.48801,12468,18.4096354883,,
96940,Woodcreek (TX),30.010925,-98.11714,5032,12.6572718952,,
46489,Lake Bryant (FL),29.166233,-81.863338,3552,7.06030758878,,
71263,Portland (ME),43.663754,-70.322222,203914,352.0001041,7362748.8,1075.0
49312,Lewiston (ID--WA),46.389236,-117.027274,51924,73.0920544618,1155508.992,343.0
89910,Vail (AZ),32.060432,-110.706984,9164,18.3112159401,,
37783,Hays (KS),38.872954,-99.312062,21180,26.4360086422,,
57088,Milan (MI),42.084889,-83.678251,7514,8.31645182229,,
58060,Momence (IL),41.16472,-87.66202,3777,4.69823843215,,
08677,Boardman (OR),45.835559,-119.696376,3362,7.45398578155,,
58992,Moorefield (WV),39.058505,-78.960856,2732,4.65679862238,,
80362,Seaside--Monterey (CA),36.615585,-121.843762,114237,100.216999941,4438570.752,1029.0
30439,Forney (TX),32.733057,-96.433718,27051,48.3447180675,,
60652,Muncy (PA),41.21758,-76.772219,9495,20.5696855723,,
98263,Zuni Pueblo (NM),35.071062,-108.823725,6744,11.877685474,,
37540,Hastings (MN),44.735266,-92.866064,22328,24.1490491408,,
16939,Cisco (TX),32.384121,-98.982343,3658,6.35324083465,,
53726,Manchester (MD),39.66167,-76.88785,5319,7.60679508006,,
36784,Hanover (PA),39.812439,-77.033723,66301,93.4882108307,,
70129,Platteville (WI),42.735219,-90.478045,11236,10.4350620965,,
90676,Ville Platte (LA),30.689889,-92.271577,9328,17.1431313023,,
85519,Sulphur (OK),34.50705,-96.975343,4733,9.58295600824,,
84061,Springhill (LA),32.992521,-93.456663,6012,14.0998952727,,
42157,Jackson (MI),42.245139,-84.410285,90057,149.372384287,3455261.568,561.0
70345,Plymouth (NC),35.853461,-76.749562,4265,9.39388687619,,
70831,Portage (PA),40.37765,-78.669529,7247,12.3283434052,,
54982,Marshall (MN),44.447097,-95.787581,13464,17.7595484726,,
71830,Powell (WY),44.755454,-108.759097,6389,6.36619077521,,
59626,Mountain City (TN),36.475089,-81.810811,2698,7.68449472337,,
33895,Gooding (ID),42.936509,-114.715474,3726,3.54569372305,,
71290,Portland (MI),42.870295,-84.914326,5020,9.01833860019,,
68752,Perryton (TX),36.387485,-100.811223,8801,11.0385293263,,
31330,Franklin (NH),43.445645,-71.622558,9582,16.5370740845,,
62893,Newport (TN),35.972902,-83.167714,11603,25.5191528511,,
40888,Hurricane (UT),37.182351,-113.35182,16336,26.8918465496,,
08353,Bloomfield (NM),36.711886,-107.985398,9892,19.5388703044,,
20395,Cortland (NY),42.604246,-76.182202,27493,27.6325831492,,
09352,Bowie (TX),33.558499,-97.843269,5143,10.468731942,,
18937,Columbia (MO),38.955624,-92.327874,124748,160.084575112,4261542.912,691.0
21421,Crowley (LA),30.214652,-92.371693,14908,17.7906283299,,
63271,Nine Mile Falls (WA),47.818661,-117.594814,4086,11.2949381492,,
67024,Palacios (TX),28.710531,-96.215919,4591,5.28357574509,,
78472,Saltillo (MS),34.373667,-88.690258,4303,11.2534983394,,
49798,Lillington (NC),35.397031,-78.82702,3316,6.39986062064,,
58195,Monett (MO),36.923046,-93.920943,8470,12.346473322,,
13267,Cañon City (CO),38.438739,-105.212346,27139,50.2535393048,,
59827,Mount Angel (OR),45.067595,-122.792781,3568,3.32295474556,,
41590,Iowa City (IA),41.68132,-91.558531,106621,118.041298117,3030394.752,450.0
83467,Sparta (IL),38.129284,-89.704753,4046,6.20043153614,,
02656,Antigo (WI),45.142639,-89.153197,8158,10.8339202655,,
81334,Shelbyville (TN),35.488422,-86.450508,20005,34.9000897868,,
30628,Fort Collins (CO),40.499545,-105.058836,264465,284.023276156,8304215.04,1299.0
71749,Pottstown (PA),40.269278,-75.647562,107682,204.158402785,2631277.44,510.0
94996,Whiteville (NC),34.311178,-78.713915,7446,22.5846963221,,
59950,Mount Horeb (WI),43.00763,-89.730168,6997,7.32966635225,,
68900,Peterborough (NH),42.888184,-71.950697,3165,8.64797030041,,
76366,Rose Hill (KS),37.567467,-97.132889,3650,2.94222649334,,
78499,Salt Lake City--West Valley City (UT),40.638204,-111.926483,1021243,719.718846041,35297741.952,3159.0
52093,Luray (VA),38.664776,-78.45099,4770,10.0621038087,,
18712,Colfax (CA),39.096029,-120.953354,3144,6.28331115568,,
58330,Monroe (LA),32.521063,-92.117116,116533,212.228805737,4988966.4,824.0
17830,Clifton (TX),31.782235,-97.578621,3421,5.62545417565,,
09919,Bremen (IN),41.446077,-86.150628,4663,6.22892140536,,
74962,Rigby (ID),43.664833,-111.913211,8729,21.6730205073,,
04168,Augusta (KS),37.69194,-96.973193,9350,10.6137712762,,
79012,San Joaquin (CA),36.606981,-120.187815,3983,2.46566868104,,
88597,Troy (NC),35.363381,-79.894585,3618,7.28563655438,,
37162,Harrisonburg (VA),38.423834,-78.885813,66784,84.3015230033,2193535.872,254.0
87112,Terra Bella (CA),35.960024,-119.035185,3119,3.9834017137,,
92012,Warsaw (MO),38.243452,-93.371575,2565,6.66403940789,,
29575,Fergus Falls (MN),46.288617,-96.069587,12081,15.8636771758,,
01279,Alexandria (LA),31.260637,-92.506129,82804,169.753000728,3226734.72,693.0
15373,Charles City (IA),43.065283,-92.67785,7706,10.1786532736,,
80308,Searcy (AR),35.242117,-91.707912,25979,60.7119112944,,
40955,Huxley (IA),41.898445,-93.574131,4094,6.5397199786,,
37945,Hazleton (PA),40.983517,-75.98017,56827,80.890508662,1577157.12,352.0
83602,Spearman (TX),36.194103,-101.194145,3349,3.96527179692,,
78013,St. Peter (MN),44.325999,-93.966641,11634,11.9916449509,,
29775,Firestone--Frederick (CO),40.118797,-104.943974,21474,26.430828666,,
34894,Greeneville (TN),36.166787,-82.809872,23957,68.0597075634,,
30755,Fort Lupton (CO),40.088084,-104.794737,9055,13.7994566519,,
15454,Charleston (MO),36.9073,-89.349156,5893,9.49230642438,,
68833,Peru--LaSalle (IL),41.33481,-89.122306,32048,57.4744261565,,
03520,Aspen (CO),39.199309,-106.840314,7710,11.8517855929,,
76501,Roxboro (NC),36.399407,-78.983258,9660,18.7929537286,,
67375,Paradise (CA),39.775327,-121.60205,34725,54.2498909591,,
23513,Denton Southwest (TX),33.127309,-97.23241,3307,10.5101717517,,
07840,Bishop (CA),37.365976,-118.415939,9935,11.03334935,,
31114,Fostoria (OH),41.15923,-83.413739,14694,17.1275913737,,
24553,Douglas (WY),42.753293,-105.3831,6175,8.33976171528,,
00982,Albemarle (NC),35.375322,-80.189318,16823,44.413116116,,
08083,Blackwell (OK),36.799819,-97.29264,6916,9.12452811271,,
39349,Holden Beach (NC),33.926079,-78.318233,3136,10.0646937968,,
27604,England (AR),34.546064,-91.964499,2762,3.94455189204,,
18154,Clover (SC),35.102669,-81.222927,6513,14.3070943215,,
24391,Donaldsonville (LA),30.072545,-90.923196,14571,41.3154903361,,
83062,Sonora (TX),30.567918,-100.64435,3352,5.02198694594,,
49771,Lihue (HI),21.975754,-159.361677,13983,19.1762719689,,
38296,Henderson (TN),35.453591,-88.661027,6027,12.1781240948,,
50716,Llano (TX),30.749773,-98.678836,2832,5.4363850436,,
00091,Abbotsford (WI),44.948612,-90.315875,3966,5.36386537651,,
67753,Parlier (CA),36.610277,-119.539467,14490,4.09736119055,,
02901,Arcadia (WI),44.249706,-91.490908,2993,5.4622849247,,
78121,Salem (IN),38.604444,-86.101723,6544,10.0180740108,,
30331,Forest City (NC),35.330746,-81.877374,26418,90.890452756,,
67564,Paris (TX),33.664769,-95.528542,26349,40.3623747115,,
43227,Johnson Lane (NV),39.038646,-119.733926,5337,10.7769405271,,
29116,Faribault (MN),44.294041,-93.282069,23696,29.5388143984,,
66376,Ottumwa (IA),41.020245,-92.41095,24771,35.7625558275,,
00253,Abilene (KS),38.92106,-97.220754,7054,8.77228972971,,
72244,Priceville (AL),34.511147,-86.931581,3006,9.66065565155,,
79525,Santa Rosa (NM),34.939098,-104.68924,2621,5.58919434211,,
24904,Dumas (TX),35.868372,-101.965714,14836,14.6671026688,,
31573,Fredericksburg (TX),30.273813,-98.869231,11511,19.5932600547,,
03358,Asheville (NC),35.536428,-82.66557,280648,686.028280701,16573024.512,2195.0
06625,Bellevue (OH),41.277074,-82.84458,8413,13.7528368659,,
23608,De Queen (AR),34.043394,-94.343051,6209,10.867590111,,
73666,Rayville (LA),32.470967,-91.758404,4267,6.34288088221,,
01900,Alvarado (TX),32.412303,-97.216677,4133,7.3426162928,,
52309,Lyons (KS),38.344094,-98.203834,3652,4.51175928821,,
42049,Jackson (CA),38.348812,-120.765336,7255,13.3228988396,,
51445,Los Angeles--Long Beach--Anaheim (CA),33.982668,-118.104332,12150996,4496.26597933,435821620.608,24877.0
77365,Ste. Genevieve (MO),37.973405,-90.047395,4329,6.3636007871,,
15292,Chaparral (NM),32.02465,-106.378856,12328,27.7543125904,,
43507,Junction City (KS),39.091847,-96.790133,38787,58.2643725301,,
61759,New Baden (IL),38.538515,-89.696976,3424,3.38770444832,,
11026,Brunswick (GA),31.214895,-81.504818,51024,112.356274214,2924178.048,426.0
26632,Electra (TX),34.030758,-98.919085,2746,4.28902031072,,
59210,Morgan (UT),41.040936,-111.679278,3518,6.22633141725,,
07192,Berlin (NH),44.458649,-71.17594,11159,14.1387450943,,
97858,Youngsville (PA),41.854196,-79.311995,2921,6.58633976458,,
28738,Fairfield (TX),31.725269,-96.16908,3280,11.8725054978,,
38161,Helena (MT),46.614109,-111.993456,45055,73.050614652,,
35920,Gulfport (MS),30.401276,-89.023789,208948,426.115203865,11204252.928,1574.0
23284,Delta (UT),39.352943,-112.573479,3258,4.96759719562,,
25957,Eaton (OH),39.748358,-84.635603,8112,10.1320334876,,
28225,Eureka (IL),40.713988,-89.274949,5573,6.73137909876,,
91540,Walters (OK),34.354345,-98.308334,2506,3.32813472178,,
35218,Greentown (IN),40.48217,-85.979616,3219,5.93625274889,,
88732,Tucson (AZ),32.254891,-110.946141,843168,915.464967444,29402714.88,3855.0
32491,Galveston (TX),29.287801,-94.822135,44022,30.3831505224,,
27037,Ellijay (GA),34.683566,-84.486367,3496,13.1182897789,,
46261,Lagrange (IN),41.647888,-85.417482,3113,5.51926466313,,
43210,Johnson City (TN),36.337715,-82.350994,120415,284.678543148,4997013.12,1019.0
06139,Beckley (WV),37.789182,-81.229955,64022,157.914165075,,
43217,Johnson Creek (WI),43.079053,-88.771069,2702,4.7862980279,,
22393,David City (NE),41.255569,-97.126392,2879,3.37216451966,,
78877,Sanford (NC),35.461292,-79.172667,33120,74.9620258775,,
26821,Elkhorn (WI),42.692353,-88.538182,12484,26.6354377267,,
11566,Burgaw (NC),34.550156,-77.930332,3456,6.40763058497,,
49906,Lincoln (IL),40.135405,-89.378653,18224,24.3562481896,,
66889,Pagosa Springs (CO),37.270814,-107.071991,4909,13.7709667827,,
50662,Livingston (TX),30.710597,-94.933456,5139,14.1283851419,,
13996,Carroll (IA),42.070722,-94.863917,9984,11.9113553194,,
69400,Pilot Point (TX),33.398257,-96.955518,3579,4.39520982324,,
26551,Eldorado at Santa Fe (NM),35.5371,-105.92963,4372,18.9146831698,,
96319,Winfield (KS),37.235066,-96.9851,12029,15.1125806238,,
60930,Mystic Island (NJ),39.593926,-74.354788,22217,32.8721290964,,
61354,Natchitoches (LA),31.754426,-93.083408,19763,30.5514997495,,
53065,Madison (GA),33.591532,-83.470712,4401,10.8779500634,,
35326,Greenville (MI),43.181411,-85.263948,9743,15.9698666883,,
64297,Oakdale (LA),30.817612,-92.658741,7878,13.2218893033,,
92323,Washington (IA),41.298397,-91.68957,6628,6.94893810003,,
39160,Hinton (WV),37.669813,-80.891394,2635,3.99635165425,,
51040,Lompoc (CA),34.662566,-120.462052,51509,27.7025128282,741907.584,151.0
32815,Geneva (AL),31.037275,-85.879991,2654,6.02431234464,,
28954,Fairview (TN),35.960762,-87.105576,6373,16.055336296,,
43858,Kane (PA),41.661994,-78.80885,3770,3.53533377061,,
55252,Martinsville (VA),36.695383,-79.898099,35091,110.056364773,,
73288,Ramona (CA),33.027746,-116.846797,25913,48.6788265338,,
55927,Mecca (CA),33.558331,-116.087201,11253,10.1087235946,,
75529,Robinson (IL),39.004515,-87.733389,7894,14.014425665,,
65215,Olney (TX),33.366858,-98.759551,3282,4.61276882451,,
74854,Ridgeland (SC),32.483382,-80.969402,5301,14.1568750111,,
74584,Richlands (VA),37.084928,-81.793323,9588,21.4373315893,,
65188,Olney (IL),38.730344,-88.084723,9177,17.8009882823,,
77743,St. Joseph (MO--KS),39.75655,-94.830405,81176,108.380642465,2491264.512,578.0
58006,Modesto (CA),37.674451,-120.965861,358172,237.96551759,9229587.84,1148.0
73045,Quincy (IL),39.936081,-91.379314,45228,61.1522092731,,
29467,Fayetteville (TN),35.11547,-86.574364,9178,25.1565545157,,
31978,Frostproof (FL),27.734218,-81.560526,7626,19.8729787706,,
77581,St. James (MN),43.983681,-94.626829,4585,5.21364606611,,
19288,Columbus (WI),43.336063,-89.01832,6623,9.96886423668,,
43453,Juana Díaz (PR),18.121667,-66.478465,80928,123.816971603,,
52930,McRae (GA),32.062814,-82.894329,8747,13.5870776268,,
24607,Dover--Rochester (NH--ME),43.226307,-70.899627,88087,172.039960229,2982114.432,409.0
82738,Socorro (NM),34.06402,-106.898182,8991,15.9750466646,,
68239,Pecan Plantation (TX),32.372404,-97.663569,6366,23.1078739204,,
61300,Nassau Village-Ratliff (FL),30.524828,-81.78805,5243,18.2490562254,,
11296,Buffalo (MN),45.181514,-93.864247,15972,21.6497106143,,
96400,Winner (SD),43.373145,-99.854219,2907,4.52988920498,,
09649,Brandon (SD),43.596301,-96.571764,8173,8.57286064521,,
24958,Dundee (MI),41.95782,-83.660254,3799,6.42835048985,,
65323,Omro (WI),44.038127,-88.737009,3358,4.44182960923,,
06301,Belding (MI),43.096485,-85.233029,5789,12.3387033576,,
46465,Lake Arrowhead--Crestline (CA),34.250088,-117.235479,22175,43.7915189696,,
57277,Millersburg (OH),40.553972,-81.915653,2968,4.55060910986,,
21124,Crewe (VA),37.186415,-78.175639,4323,7.21052689918,,
81280,Shelbyville (IN),39.527071,-85.776245,20795,27.1896951823,,
65458,O'Neill (NE),42.460155,-98.644527,3682,5.40271519816,,
02332,Anchorage Northeast (AK),61.329442,-149.535228,28568,42.2686059607,,
75988,Rocky Mount (NC),35.960053,-77.83026,68243,119.048803492,2518623.36,424.0
55819,Maysville (KY--OH),38.658534,-83.768083,11454,19.5155604114,,
60247,Mount Sterling (IL),39.981326,-90.762035,4088,3.81505248652,,
16237,Cheyenne (WY),41.14109,-104.806118,73588,90.9914622923,2967630.336,733.0
69751,Pittsfield (ME),44.785683,-69.38318,2523,4.6852884916,,
81604,Sheridan (WY),44.786578,-106.961975,18786,33.8770444832,,
22447,Dawson (GA),31.773621,-84.439883,4466,5.67207396164,,
76759,Rush City (MN),45.691897,-92.956718,2883,7.6922646877,,
77635,St. Johns (AZ),34.503704,-109.379467,2550,5.57624440155,,
22110,Dandridge (TN),36.017504,-83.437032,4959,22.7375056206,,
75853,Rockport (TX),28.048294,-97.059807,16322,42.4887549501,,
51131,London--Corbin (KY),37.054519,-84.08267,37367,130.683030083,,
97048,Woodland Park (CO),38.992164,-105.06446,10528,22.0045389854,,
81199,Shelby (NC),35.286751,-81.505757,27374,75.4541236184,,
19597,Conesus Lake (NY),42.806475,-77.708242,4858,10.305562691,,
21205,Crockett (TX),31.314266,-95.454161,6292,14.7318523716,,
20890,Crawfordville (FL),30.185216,-84.347677,8342,24.765466311,,
87922,Tomah (WI),43.992329,-90.503555,9002,13.0613100404,,
08407,Bloomington--Normal (IL),40.493927,-88.978753,132600,127.4118751,4438570.752,694.0
01144,Albion (PA),41.890344,-80.355166,4574,7.43326587666,,
97669,Yerington (NV),38.983152,-119.163774,2911,3.91347203472,,
46207,La Grande (OR),45.328842,-118.079864,14909,15.6849679962,,
56494,Metter (GA),32.399952,-82.063296,3633,7.793274224,,
60799,Murrieta--Temecula--Menifee (CA),33.63797,-117.230253,441546,418.863237156,,
79834,Saw Creek (PA),41.105659,-75.049884,5880,14.599762978,,
94005,Westernport (MD--WV),39.477875,-79.039554,5831,8.23875217898,,
16831,Church Point (LA),30.404173,-92.216171,4588,6.90490830216,,
00658,Ahoskie (NC),36.287865,-76.983282,4951,7.55240532974,,
09406,Bowling Green (MO),39.346265,-91.203109,5356,5.96992259432,,
17524,Clearwood (WA),46.823528,-122.473754,2611,3.4084243532,,
21637,Cullman (AL),34.179434,-86.843505,18356,57.6220554788,,
19828,Cookeville (TN),36.161823,-85.515552,44207,114.974752194,,
49096,Leominster--Fitchburg (MA),42.569209,-71.850936,116960,168.44764672,4250277.504,728.0
12106,Byron (MN),44.038026,-92.643895,4864,6.12532188094,,
80173,Scottsville (KY),36.748632,-86.197472,4251,10.3366425484,,
90244,Vassar (MI),43.359282,-83.578791,3714,8.01083322527,,
13456,Canyon (TX),34.983868,-101.918783,13440,15.9413768191,,
69157,Phillipsburg (KS),39.754944,-99.321535,2609,4.26571041772,,
84493,State College (PA),40.799259,-77.858037,87454,74.6564072804,1739700.864,310.0
57079,Milaca (MN),45.75958,-93.644108,2831,4.58427895529,,
56072,Medina (TN),35.827677,-88.798164,3636,6.4387104423,,
90487,Vicksburg (MS--LA),32.330889,-90.856628,29022,63.6463678234,,
46666,Lake Conroe Westshore (TX),30.373164,-95.614811,20569,35.9024151855,,
97264,Wooster (OH),40.821786,-81.927177,30430,47.9665798034,,
28873,Fairmont (WV),39.469497,-80.149881,33409,67.6530794301,,
20098,Corinth (MS),34.931478,-88.513816,12469,31.0306475499,,
53372,Magnolia (TX),30.214838,-95.747455,3195,9.80828497384,,
46845,Lake Land'Or (VA),38.006315,-77.542813,6165,12.3179834528,,
01063,Albia (IA),41.027003,-92.805176,3573,5.59696430644,,
62407,New Haven (CT),41.323002,-72.903346,562839,792.818670467,21721315.968,2534.0
78634,Sandersville (GA),32.97501,-82.807381,7288,18.122146808,,
45316,Kingsville (TX),27.508189,-97.862435,26011,25.0762648843,,
41360,Ingleside--Aransas Pass (TX),27.884308,-97.197249,16522,35.304127932,,
48232,Lawrence (KS),38.955611,-95.259337,88053,78.847008043,2475171.072,452.0
10162,Bridgeport--Stamford (CT--NY),41.135297,-73.534005,923311,1207.4835369,32148255.744,3958.0
46684,Lake Delton (WI),43.606683,-89.783217,5473,16.9074423843,,
75072,Rio Grande City--Roma (TX),26.375238,-98.850736,46344,69.504920929,,
17749,Cleveland (TX),30.344012,-95.085689,9960,23.1570836945,,
83859,Spring Creek South (NV),40.729553,-115.589359,3862,14.5686831206,,
05599,Batesville (MS),34.30405,-89.942143,7309,21.3415020292,,
21259,Crooksville (OH),39.772799,-82.088556,4866,7.07066754122,,
83851,Spring Creek North (NV),40.806218,-115.664538,3286,8.54696076411,,
68806,Peru (IN),40.748082,-86.08063,13095,23.1182338729,,
36001,Gunnison (CO),38.54331,-106.93554,6343,8.35012166772,,
01684,Alpena (MI),45.063072,-83.453033,14258,24.5064675,,
60463,Mount Vernon (OH),40.393212,-82.467943,22153,34.5426714276,,
47109,Lake Rancho Viejo (CA),33.323491,-117.151854,2500,1.89587129677,,
02791,Arab (AL),34.320987,-86.513807,8012,21.6807904716,,
53146,Madison (SD),44.005938,-97.11645,6174,7.33743631658,,
38566,Hesston (KS),38.139968,-97.427734,3306,4.90802746909,,
45262,Kingston (NY),41.926068,-74.046369,57442,110.947320682,5529705.984,723.0
36823,Hardyston Township West (NJ),41.145614,-74.611312,2550,4.73449826569,,
80551,Selma (CA),36.567006,-119.608779,41810,32.5043507847,,
97200,Woodville (FL),30.250321,-84.208156,5427,19.7253494483,,
63865,North Vernon (IN),39.014858,-85.642719,11354,21.7533101387,,
09109,Booneville (MS),34.658373,-88.554475,6050,14.5686831206,,
05113,Barnesville (GA),33.052313,-84.154709,7167,14.0532754867,,
36798,Hardeeville (SC),32.280779,-81.07423,2957,7.54981534163,,
70642,Ponce (PR),18.018315,-66.634192,149539,114.270275428,3794833.152,579.0
41212,Indianapolis (IN),39.811262,-86.145521,1487483,1827.86338896,74712185.856,6792.0
80956,Shallowater (TX),33.693835,-101.995021,3229,4.08182126189,,
04573,Avra Valley (AZ),32.42773,-111.326681,3869,10.1268535114,,
09676,Branson (MO),36.634205,-93.248037,22645,74.4932380295,,
14644,Catskill (NY),42.212825,-73.869612,6453,10.3832623343,,
26956,Elkton (VA),38.40456,-78.628839,3657,8.15328257134,,
05005,Baraboo (WI),43.468312,-89.746773,13759,16.0941861176,,
08272,Blissfield (MI),41.835576,-83.870515,3303,4.70600839648,,
85708,Sumter (SC),33.930654,-80.399322,73107,170.128549004,2188707.84,489.0
53578,Malvern (OH),40.672904,-81.188295,2800,7.12246730342,,
38620,Hibbing (MN),47.412813,-92.932962,11616,13.7709667827,,
56467,Metropolis (IL),37.158753,-88.72848,6607,8.70236005073,,
57898,Moberly (MO),39.417093,-92.43774,13933,22.1728882126,,
64459,Oak Island (NC),33.922417,-78.146796,11226,29.1710360867,,
20476,Coshocton (OH),40.263918,-81.857449,11517,13.5637677338,,
48124,Laurel Lake (NJ),39.330229,-75.029414,3796,4.90284749287,,
95752,Wills Point (TX),32.708706,-96.008659,3320,7.2908165306,,
63447,Norris (TN),36.174568,-84.076852,3005,10.5308916566,,
24175,Dillon (MT),45.227484,-112.630972,4609,5.85337312936,,
13078,Cameron (TX),30.858592,-96.978421,5389,8.00047327283,,
37378,Hartshorne (OK),34.848494,-95.565116,2539,4.87694761176,,
19504,Concord (CA),37.848003,-122.017105,615968,527.710077481,23382158.976,1732.0
56548,Mexico (MO),39.168802,-91.886869,11356,15.141070493,,
05680,Baton Rouge (LA),30.427885,-91.038912,594309,949.992098943,24418576.512,2543.0
83926,Springfield (MA--CT),42.125901,-72.573958,621300,902.755895786,22814060.544,3265.0
02467,Andrews (TX),32.320646,-102.546505,12346,16.1926056658,,
54577,Marion (IN),40.543832,-85.661608,43519,58.6502807586,,
28333,Evansville (IN--KY),37.978539,-87.537393,229351,307.804546985,9940917.888,1251.0
15600,Charles Town--Ranson (WV),39.297579,-77.857921,21019,48.0779492922,,
40780,Huntsville (AL),34.741669,-86.639233,286692,543.270726048,13019592.96,1677.0
54199,Manteo (NC),35.925022,-75.76314,5399,11.8129357712,,
18760,Collinsville (OK),36.363989,-95.837239,4248,7.24678673272,,
89947,Valatie (NY),42.421236,-73.679192,5336,14.1698249516,,
27550,Emporia (VA),36.698482,-77.545666,7143,14.952001361,,
80038,Scott City (MO),37.220287,-89.536001,5216,10.9090299207,,
49231,Lewes (DE),38.731396,-75.143724,24129,55.6018647527,,
03682,Athens (OH),39.328457,-82.113077,28286,25.7393018405,,
86437,Talladega (AL),33.429801,-86.120333,13493,31.8490837928,,
14266,Carthage (MO),37.166692,-94.323934,15496,23.5015521132,,
94564,Westville (IN),41.535614,-86.902673,5931,6.93857814759,,
70912,Portales (NM),34.178961,-103.338219,12610,14.1698249516,,
67861,Patterson (CA),37.471685,-121.132543,20781,14.6671026688,,
76771,Rushville (IL),40.12115,-90.564737,3196,3.54310373494,,
45883,La Conner (WA),48.389736,-122.510528,3297,4.19578073874,,
20071,Cordele (GA),31.965331,-83.775635,12416,19.4767105897,,
37999,Heavener (OK),34.895267,-94.604126,3760,6.79612880152,,
38755,Highland (IL),38.750101,-89.667508,11525,27.2673948256,,
10189,Bridgeton (NJ),39.441365,-75.223477,35022,46.0629385423,,
05977,Beardstown (IL),40.013734,-90.423739,6530,7.46434573399,,
39524,Holloman AFB (NM),32.837504,-106.077664,3054,4.00153163047,,
37756,Hawthorne (NV),38.525201,-118.624663,3249,3.1079857324,,
04087,Auburn (NE),40.38848,-95.843424,3474,5.20587610178,,
18383,Coco--Salinas (PR),17.972803,-66.291027,22102,19.8082290678,,
11944,Butler (IN),41.42924,-84.872624,2651,3.17532542327,,
40942,Hutchinson (MN),44.88951,-94.377432,14054,16.9877320157,,
51499,Los Lunas (NM),34.760773,-106.714599,63758,179.38516651,,
30763,Fort Madison (IA--IL),40.629756,-91.334287,10848,10.844280218,,
89704,Upland (IN),40.468367,-85.500161,3343,2.93963650523,,
34408,Grangerland (TX),30.22351,-95.320141,5756,13.7269369848,,
40547,Hudson (WI--MN),44.968897,-92.727958,22395,36.5939420109,,
47233,Lake Wildwood (CA),39.223911,-121.196761,7096,16.1330359393,,
83143,South Boston (VA),36.727461,-78.911876,8306,17.7077487104,,
67305,Panama City Northeast (FL),30.287744,-85.53002,5817,17.769908425,,
59545,Moulton (AL),34.480496,-87.284371,2919,8.38897148938,,
97912,Yreka (CA),41.729094,-122.637776,7598,12.8385710629,,
92404,Washington (NC),35.542248,-77.040831,16429,40.585113689,,
39376,Holdenville (OK),35.082866,-96.402344,5768,8.45631118025,,
10418,Brockport (NY),43.225484,-77.926485,20255,30.727618941,,
07057,Benton (KY),36.851835,-88.359536,4447,11.9217152719,,
09973,Brenham (TX),30.15986,-96.39592,15682,21.5331611493,,
62137,New Castle (IN),39.924639,-85.374501,22816,33.286527194,,
27523,Emporia (KS),38.4114,-96.19078,24830,28.7203781555,,
34084,Grafton (ND),48.414898,-97.411136,4219,4.76298813491,,
46868,Lake Meade (PA),39.983856,-77.040722,2563,3.42655426997,,
83953,Springfield (MO),37.148873,-93.287053,273724,368.568258041,10731105.792,1498.0
50149,Linton (IN),39.037197,-87.165565,5822,12.6184220736,,
11107,Bryan (OH),41.473955,-84.550698,9762,16.3039751546,,
28431,Evergreen (AL),31.429395,-86.95576,2520,5.59955429455,,
71776,Pottsville (PA),40.689161,-76.180545,43247,59.8701651585,,
94969,White Sulphur Springs (WV),37.795735,-80.296459,2674,3.9600918207,,
59491,Moscow (ID),46.73131,-116.993349,24212,15.2783398629,,
17857,Clifton Forge (VA),37.816165,-79.81748,5311,9.98181417723,,
67765,Parowan (UT),37.842977,-112.834109,2551,4.6360787175,,
76177,Romancoke (MD),38.900423,-76.355738,3538,9.99217412968,,
13850,Carmel Valley Village (CA),36.468948,-121.730643,3122,7.51873548431,,
67942,Pauls Valley (OK),34.730908,-97.226029,5835,8.73343990805,,
88543,Troy (AL),31.800175,-85.975851,15897,31.7247643635,,
89839,Uvalde (TX),29.205393,-99.795278,18118,27.0394758719,,
07948,Blackfoot (ID),43.19907,-112.389519,15352,32.0148430319,,
67780,Parsons (KS),37.341197,-95.269854,10298,14.177594916,,
86545,Tama (IA),41.989721,-92.588114,4904,5.73682366439,,
10027,Brevard (NC),35.229587,-82.73134,13121,31.1705069079,,
58546,Monte Vista (CO),37.578287,-106.140573,4489,5.44415500793,,
08893,Bonadelle Ranchos-Madera Ranchos (CA),36.986902,-119.873482,8024,23.0249943009,,
03223,Artesia (NM),32.837488,-104.414485,12764,16.9126223605,,
95968,Winamac (IN),41.052369,-86.603869,2554,3.65706321179,,
66093,Osburn (ID),47.496283,-115.979512,2521,3.21676523304,,
50473,Live Oak (Sutter County) (CA),39.274299,-121.66386,8547,4.92356739775,,
86653,Taos (NM),36.38809,-105.590557,13686,41.525279373,,
92539,Waterford (CA),37.63781,-120.757377,9104,6.27036121512,,
91999,Warsaw (IN),41.250838,-85.831729,30166,68.9221736042,,
92242,Washington (DC--VA--MD),38.897222,-77.189759,4586770,3423.26239509,157290845.184,12330.0
15022,Centralia (IL),38.517291,-89.132952,17296,30.5489097614,,
95212,Wilburton (OK),34.915546,-95.313717,2979,6.17971163126,,
59302,Morrilton (AR),35.161091,-92.739342,6272,14.718902431,,
88948,Tulsa (OK),36.105449,-95.901334,655479,870.010676107,33020520.192,3562.0
79606,Sarasota--Bradenton (FL),27.303534,-82.475257,643260,846.115445801,26456006.016,3380.0
49934,Lincoln (ND),46.760492,-100.698538,2992,3.05877595831,,
38172,Helena-West Helena (AR),34.541632,-90.633667,11321,15.9232469023,,
35137,Greensboro (GA),33.574391,-83.179046,2759,5.80934333148,,
66565,Oxford (MS),34.363786,-89.531314,25768,41.548589266,,
77824,St. Martinville (LA),30.129085,-91.835324,7220,12.6391419784,,
46180,Lago Vista (TX),30.44679,-97.997855,5281,14.0921253083,,
08002,Blacksburg (VA),37.123193,-80.421067,88542,132.63329113,2056741.632,284.0
06949,Benson (AZ),31.961904,-110.293426,4036,6.48533022828,,
61786,New Bedford (MA),41.673929,-70.937061,149443,142.70834488,4358103.552,684.0
94658,Weyers Cave (VA),38.275643,-78.929216,2522,4.6101788364,,
06128,Becker (MN),45.40383,-93.874419,3898,5.03493688649,,
61030,Nanty-Glo (PA),40.460986,-78.837826,3918,9.32654718532,,
34624,Grayling (MI),44.667422,-84.717016,3858,10.7018308719,,
07300,Berryville (AR),36.370618,-93.565675,4800,10.3444125127,,
23257,Delta (OH),41.575613,-83.999503,3158,4.44441959734,,
60571,Muleshoe (TX),34.227804,-102.733169,5105,6.28590114379,,
30466,Forrest City (AR),35.00951,-90.785979,13690,15.0840907546,,
93592,Weirton--Steubenville (WV--OH--PA),40.379958,-80.62443,70889,130.809939501,2689213.824,556.0
50986,Logan (WV),37.844924,-81.99119,10747,20.8416343239,,
12457,Calhoun (GA),34.480071,-84.920551,31493,85.6534967969,,
11350,Buffalo (NY),42.92493,-78.823675,935906,984.01418276,33340779.648,4372.0
27010,Ellenville (NY),41.730534,-74.387755,6577,8.23616219087,,
28657,Fairfield (CA),38.259143,-122.036061,133683,102.208700798,6142866.048,355.0
55009,Marshall (MO),39.113887,-93.196407,12665,16.0734662127,,
24769,Dublin (TX),32.088665,-98.342338,3543,5.67984392597,,
00388,Ada (OH),40.767274,-83.824641,5945,4.76816811113,,
61327,Natchez (MS--LA),31.55913,-91.40513,28199,55.4361055136,,
74935,Rifle (CO),39.538931,-107.77561,10479,10.1812432617,,
94520,West Tawakoni (TX),32.891293,-96.048701,7606,28.1065509734,,
51580,Louisa (KY--WV),38.110638,-82.604828,4253,9.28251738744,,
00226,Abernathy (TX),33.830523,-101.846278,2785,3.05100599398,,
50500,Live Oak (FL),30.290693,-82.985439,6994,14.506523406,,
69517,Pinehurst--Southern Pines (NC),35.176119,-79.435539,36272,98.1294695244,,
50770,Lock Haven (PA),41.129716,-77.443169,17741,27.2881147305,,
67483,Paris (IL),39.615185,-87.69436,8953,12.4682027632,,
35461,Greenville (SC),34.844227,-82.442095,400492,829.433332383,14698138.752,2114.0
74840,Ridgefield (WA),45.812811,-122.729709,4259,5.69279386652,,
19612,Conneaut (OH),41.934646,-80.610194,14109,39.0259408465,,
76204,Rome (GA),34.256159,-85.174736,60851,123.454373267,3360310.272,599.0
19342,Colusa (CA),39.208445,-122.012902,6791,5.86632306991,,
72505,Providence (RI--MA),41.776323,-71.397401,1190956,1411.6600696,41022178.56,6369.0
55792,Mayodan (NC),36.409661,-79.966984,4382,9.01056863586,,
69697,Pittsburgh (PA),40.456928,-79.950944,1733853,2344.38989779,53235490.176,9451.0
86248,Sylvester (GA),31.527623,-83.825279,6685,13.9470859742,,
50878,Lodi (OH),41.033573,-82.011421,2670,3.82023246275,,
60814,Muscatine (IA),41.427982,-91.062586,25342,37.6687870767,,
86086,Sweeny (TX),29.043317,-95.700652,3584,4.50139933576,,
51634,Louisburg (NC),36.097746,-78.301598,3694,6.24187134591,,
10999,Brownwood (TX),31.709761,-98.97287,22711,43.9779981135,,
52903,McPherson (KS),38.370945,-97.662215,13083,17.9822874501,,
69508,Pine Grove (PA),40.542961,-76.384866,3462,7.57053524651,,
07543,Big Lake (TX),31.19452,-101.459125,2919,2.7557473494,,
02062,Ames (IA),42.031532,-93.633771,60438,60.1654238031,1190914.56,239.0
84817,Sterling (IL),41.78836,-89.696798,28827,37.0109300967,,
73450,Raton (NM),36.895899,-104.439487,6551,9.7487152473,,
92755,Water Valley (MS),34.152497,-89.632256,2622,5.80157336715,,
06490,Belle Fourche (SD),44.664941,-103.85024,5240,6.84533857562,,
22744,Decatur (IN),40.827785,-84.928326,10440,17.7440085439,,
39025,Hilmar-Irwin (CA),37.409772,-120.851958,4852,5.12558647035,,
44911,Kihei (HI),20.732585,-156.446319,25819,17.3373804106,,
82724,Social Circle (GA),33.670376,-83.718402,3328,9.2462575539,,
82090,Silverthorne--Frisco (CO),39.632711,-106.052257,15351,23.2373733259,,
04897,Bamberg (SC),33.29856,-81.029973,3492,7.23901676839,,
56440,Metamora (IL),40.796157,-89.368189,3650,5.40271519816,,
73909,Red Oak (IA),41.015202,-95.225186,5597,6.75986896798,,
25417,Eagle Grove (IA),42.664604,-93.90382,3076,3.57418359226,,
00793,Alachua (FL),29.791337,-82.507892,4114,9.76166518786,,
96616,Winslow (AZ),35.021816,-110.719611,9765,24.0506295926,,
25147,Durango (CO),37.289287,-107.869874,17982,24.1723590338,,
56845,Middletown (DE),39.447335,-75.67538,29415,45.7443700048,,
60490,Mount Vernon (WA),48.446473,-122.305923,62966,89.2794801514,2291705.856,334.0
57790,Mitchell (IN),38.735115,-86.472044,4193,7.71298459258,,
52341,Lytle (TX),29.224268,-98.807505,3475,10.8934899921,,
65338,Onalaska (TX),30.81486,-95.111408,5016,16.3480049524,,
12025,Butner (NC),36.129731,-78.745092,16975,44.4856357831,,
19909,Coopersville (MI),43.065181,-85.93626,3951,5.06860673193,,
38998,Hillsdale (MI),41.928247,-84.628387,11646,19.4818905659,,
55860,Mazomanie (WI),43.168722,-89.79049,2956,4.68010851538,,
53983,Mankato (MN),44.1667,-93.991385,57584,68.3057564339,,
74449,Richgrove (CA),35.79892,-119.106345,2867,0.740736599556,,
43534,Junction City (OR),44.216685,-123.207229,5966,5.46746490092,,
93376,Waynesburg (PA),39.897706,-80.170628,8665,9.07790832673,,
01468,Allendale (SC),33.008841,-81.311258,3307,5.94920268944,,
09244,Boscobel (WI),43.136647,-90.699795,3261,3.99376166614,,
14914,Centerville (IA),40.730632,-92.870897,5380,8.68423013396,,
88057,Tooele (UT),40.538675,-112.299368,31058,23.7968107578,,
96535,Winnsboro (TX),32.955144,-95.291729,3403,9.05718842184,,
36136,Gypsum (CO),39.640156,-106.941227,5963,9.06754837429,,
82549,Smithfield (VA),36.980049,-76.592973,10215,24.7965461684,,
19585,Concordia (KS),39.567916,-97.654895,5340,6.4646103234,,
69211,Picayune (MS),30.534134,-89.677118,16792,44.9337037262,,
51121,London (OH),39.89844,-83.452654,14260,14.8976116107,,
48934,Leitchfield (KY),37.490082,-86.259803,6802,13.755426854,,
39970,Hoopeston (IL),40.465767,-87.672107,5116,5.50890471068,,
60787,Murray (KY),36.608658,-88.325636,19072,30.069761961,,
64550,Oberlin (OH),41.292908,-82.216878,7966,7.19498697051,,
20719,Covington (TN),35.563046,-89.655404,8578,17.1638512072,,
64000,Norton (KS),39.83354,-99.891388,2893,3.51202387762,,
86869,Tehachapi--Golden Hills (CA),35.151463,-118.491792,16540,23.5740717803,,
81388,Shelley (ID),43.380092,-112.126373,4701,5.35350542406,,
65539,Ontario (OR--ID),44.023376,-116.988748,25539,33.2528573486,,
93970,West Columbia (TX),29.149082,-95.6387,4976,8.7696997416,,
63676,Northfield (MN),44.448766,-93.169159,21535,23.8848703535,,
02494,Angels (CA),38.074409,-120.551042,3751,6.90231831405,,
17514,Clearlake Riviera (CA),38.954606,-122.735748,2806,7.97457339172,,
25093,Du Quoin (IL),38.017557,-89.232631,6467,11.6445865441,,
18208,Clovis (NM),34.414716,-103.214782,41570,58.4586216384,,
75880,Rock Springs (WY),41.594658,-109.240478,26352,36.2080337825,,
74206,Rensselaer (IN),40.935218,-87.152169,6048,7.43326587666,,
97588,Yazoo City (MS),32.862333,-90.419048,15546,22.2195079986,,
90271,Veneta (OR),44.050539,-123.34004,5979,10.6966508957,,
02251,Anadarko (OK),35.07139,-98.241232,5929,6.28331115568,,
42319,Jackson (WY),43.472006,-110.757114,11407,10.5567915377,,
69238,Picture Rocks (AZ),32.331198,-111.215041,4345,10.8106103725,,
08299,Bloomer (WI),45.10406,-91.494219,3348,5.09191662492,,
49150,Le Roy (NY),42.976148,-77.990293,4275,4.9365173383,,
61273,Nashville-Davidson (TN),36.128138,-86.681006,969587,1459.37542055,55808831.232,5712.0
46675,Lake Crystal (MN),44.108547,-94.218011,2558,3.35921457911,,
11647,Burlington (CO),39.303816,-102.265989,4243,3.83836237952,,
17776,Clewiston (FL),26.74849,-80.931175,12833,12.0512146774,,
57331,Millinocket (ME),45.657114,-68.703846,3976,4.97018718373,,
46855,Lake Los Angeles (CA),34.611803,-117.834173,11808,16.7883029312,,
83993,Springfield (TN),36.485193,-86.877111,17357,31.7014544705,,
95698,Willmar (MN),45.129721,-95.044552,20244,29.4559347789,,
87355,Thief River Falls (MN),48.105767,-96.17972,8883,15.9543267597,,
53362,Magnolia (AR),33.274019,-93.233651,10438,19.4430407443,,
70588,Polson (MT),47.691397,-114.157979,4763,7.3426162928,,
07273,Berrien Springs (MI),41.950895,-86.340788,7358,12.8489310154,,
37567,Hastings (NE),40.592563,-98.396581,24312,22.4810967977,,
75089,Rio Rico Northeast (AZ),31.481588,-110.977124,2628,4.57909897907,,
39808,Honea Path (SC),34.447275,-82.39641,3505,7.78550425967,,
10378,Bristow (OK),35.828547,-96.392234,4110,4.77334808735,,
21718,Cumberland (KY),36.973704,-82.982809,3711,6.06575215441,,
22825,Deer Lodge (MT),46.397951,-112.732286,3217,3.80728252219,,
75080,Rio Hondo (TX),26.232386,-97.580355,4423,9.46122656706,,
20665,Covington (IN),40.140933,-87.390552,2625,2.87488680247,,
60473,Mount Vernon (TX),33.169348,-95.22841,2585,7.36333619769,,
84007,Springfield (VT),43.307145,-72.498547,4872,7.99529329661,,
36568,Hampshire (IL),42.094034,-88.521756,4619,5.71869374762,,
14671,Cazenovia (NY),42.936974,-75.855216,3114,4.08700123811,,
63784,North Manchester (IN),41.006727,-85.772595,6031,6.86087850428,,
16912,Circleville (OH),39.605271,-82.937125,14965,19.0079227418,,
21394,Crossville (TN),35.933188,-85.042565,16337,54.8533581888,,
53740,Manchester (NH),42.991043,-71.479666,158377,223.122295729,5829043.968,840.0
09838,Breckenridge (TX),32.756684,-98.909361,5839,9.69173550888,,
03817,Atlanta (GA),33.824102,-84.331858,4515419,6851.43022765,208636965.504,21036.0
05167,Barnstable Town (MA),41.622829,-70.576489,246695,718.092333507,14121993.6,2755.0
17290,Clarksville (AR),35.47186,-93.474714,7313,17.4383899469,,
70102,Platte City (MO),39.344276,-94.771415,8958,15.2291300888,,
85060,Stilwell (OK),35.812659,-94.633442,3789,6.04503224952,,
42778,Jayuya (PR),18.203088,-66.598512,11300,25.8662112579,,
36811,Hardin (MT),45.7332,-107.613395,3614,3.39288442454,,
80011,Scott City (KS),38.479847,-100.909072,3647,3.91606202283,,
36585,Hampstead (NC),34.385913,-77.650522,10716,39.8236571845,,
90122,Van (TX),32.528529,-95.638702,2502,6.25223129835,,
58222,Monmouth (IL),40.912498,-90.644298,9654,10.0439738919,,
61813,Newberg (OR),45.299898,-122.973965,27001,25.6020324707,,
44128,Kayenta (AZ),36.722927,-110.251423,4688,6.66403940789,,
58951,Montrose (CO),38.482075,-107.873187,22706,46.9694343809,,
44695,Ketchum (ID),43.683602,-114.372859,3919,9.0468284694,,
45748,Kotzebue (AK),66.894454,-162.587054,3200,2.4294088475,,
08245,Blanding (UT),37.625871,-109.481413,3264,4.32528014426,,
18883,Columbia (KY),37.101613,-85.302172,4579,8.74379986049,,
29359,Fayette (AL),33.694825,-87.830734,3408,7.29858649493,,
70696,Pontotoc (MS),34.247472,-89.010213,4807,14.9183315155,,
00415,Ada (OK),34.774803,-96.669103,17400,30.914098085,,
10513,Broken Bow (NE),41.40544,-99.640174,3537,4.93133736208,,
14077,Carrollton (MO),39.363063,-93.493303,3296,5.62027419943,,
05302,Barstow (CA),34.888022,-117.038437,28973,31.9785831983,,
48286,Lawrenceburg (TN),35.24604,-87.331029,10100,23.6906212452,,
83440,Sparta (GA),33.275141,-82.973767,3622,9.97145422479,,
71182,Port Isabel--Laguna Heights (TX),26.078676,-97.213151,14950,17.88645789,,
39712,Homesteads Addition (TX),32.472805,-97.164098,6372,20.4065163213,,
94618,Wetumpka (AL),32.53725,-86.206364,6659,13.8538464022,,
41374,Interlachen (FL),29.648505,-81.873122,5805,27.9511516867,,
90055,Valley City (ND),46.924213,-97.993207,6689,12.3050335122,,
13240,Cannon Falls (MN),44.509501,-92.902051,3931,7.03440770767,,
44236,Kekaha (HI),21.962107,-159.674802,5313,4.68787847971,,
11917,Bushnell (IL),40.552775,-90.507321,3045,3.8098725103,,
70210,Pleasant Hill (MO),38.797479,-94.258816,8049,11.8025758188,,
71344,Portland (TN--KY),36.58258,-86.515642,10869,24.6981266202,,
71614,Post (TX),33.194194,-101.382837,5018,4.77593807546,,
57520,Minden (NE),40.497483,-98.951252,2891,3.6596531999,,
57979,Mocksville (NC),35.901873,-80.557154,5191,15.4415091138,,
15616,Charlevoix (MI),45.309,-85.252038,4179,11.7300561517,,
30196,Folkston (GA),30.839082,-82.002699,5961,12.4552528226,,
04789,Baldwin City (KS),38.777506,-95.18748,4428,5.32242556674,,
76690,Rumford (ME),44.552529,-70.547448,4987,5.05306680327,,
18680,Coldwater (OH),40.48269,-84.631441,4473,4.87435762365,,
44344,Kenai (AK),60.566972,-151.257601,4921,13.6233374604,,
18775,Colonial Beach (VA),38.256935,-76.97469,3693,4.58945893152,,
53416,Mahomet (IL),40.198406,-88.387854,11044,17.7336485915,,
05410,Basalt--El Jebel (CO),39.388924,-107.087515,8531,10.4713219301,,
21664,Cullowhee (NC),35.320013,-83.188619,10837,20.2226271655,,
20287,Corpus Christi (TX),27.745333,-97.412599,320069,311.528949887,12686458.752,1730.0
14212,Carthage (IL),40.414538,-91.135021,2582,4.20614069119,,
91054,Waconia (MN),44.841988,-93.793195,10748,11.3700478044,,
04411,Ava (MO),36.954458,-92.661589,2857,5.4130751506,,
79039,San Jose (CA),37.329845,-121.945145,1664496,740.692569758,57912243.84,3693.0
01252,Alexander City (AL),32.939745,-85.957946,9400,25.1591445038,,
63325,Nogales (AZ),31.408478,-110.95936,32044,64.5658136026,,
20044,Corcoran (CA),36.085268,-119.563195,25516,16.9696020989,,
90851,Virden (IL),39.516078,-89.76735,4266,6.35065084654,,
83629,Spencer (IA),43.143744,-95.156558,10952,16.0035365338,,
83278,South Hill (VA),36.72211,-78.115354,4834,12.5174125373,,
14185,Cartersville (GA),34.19247,-84.828245,52477,131.055988371,,
05788,Baxley (GA),31.771186,-82.346883,5208,14.6904125618,,
10198,Bridgeville (DE),38.727397,-75.589709,3343,8.15587255945,,
94807,Whitehall (MI),43.385968,-86.202296,10568,35.1305987286,,
71506,Portsmouth (NH--ME),43.036364,-70.81534,88200,240.021968149,3857597.568,490.0
01090,Albion (MI),42.252722,-84.75533,9219,17.1016914925,,
41158,Independence (KS),37.229062,-95.714514,9959,14.7499822884,,
68320,Pelham (GA),31.130385,-84.156221,3750,5.75495358117,,
15859,Cheboygan (MI),45.639155,-84.476836,4517,9.01833860019,,
18397,Cody (WY),44.522764,-109.050402,9338,16.4412445244,,
39133,Hinesville (GA),31.823468,-81.617173,51456,80.6574097321,1355067.648,270.0
89719,Upper Greenwood Lake (NJ),41.175154,-74.382072,3879,4.26571041772,,
83156,South Deerfield (MA),42.434253,-72.564163,5028,17.0732016233,,
34435,Grangeville (ID),45.926138,-116.123233,3150,3.89534211795,,
59572,Moultrie (GA),31.173919,-83.776561,18677,47.0937538102,,
54037,Manning (SC),33.693581,-80.221119,4998,10.4765019063,,
11134,Buckeye (AZ),33.390473,-112.583155,19424,27.1042255747,,
14320,Carthage (TN),36.24688,-85.950403,3282,7.50319555564,,
18370,Cochran (GA),32.390238,-83.346608,6324,11.947615153,,
03034,Arecibo (PR),18.4546,-66.80797,139171,217.740300436,2877507.072,618.0
15103,Century (FL--AL),30.968076,-87.259986,3321,7.417725948,,
92431,Washington Court House (OH),39.539735,-83.437564,15168,17.5238595545,,
02035,Amery (WI),45.306434,-92.364101,2832,5.34055548351,,
77905,St. Marys (WV--OH),39.398025,-81.220842,4315,6.76763893231,,
87625,Tifton (GA),31.452841,-83.513473,23757,45.8790493865,,
39565,Holly Springs (MS),34.771767,-89.443523,6160,11.3078880897,,
91459,Walnut Ridge (AR),36.062992,-90.965968,6346,9.59331596068,,
59977,Mount Morris (IL),42.044537,-89.424877,3457,5.26803581642,,
30601,Fort Branch (IN),38.241084,-87.580323,4379,4.79406799223,,
91189,Wahpeton (ND--MN),46.268123,-96.601372,11113,17.4565198637,,
34327,Grand Rapids (MN),47.23171,-93.525484,9285,20.8597642406,,
47827,Laramie (WY),41.316359,-105.605745,31965,47.4822520268,,
30358,Forest Lake (MN),45.285152,-92.960338,21816,46.2934474841,,
15589,Charlestown (RI),41.38411,-71.621941,2942,10.8520501823,,
83710,Spirit Lake (IA),43.390905,-95.116367,10826,30.0827119016,,
22555,Dayton (TN),35.488876,-85.015979,10174,23.5222720181,,
02926,Arcata-McKinleyville (CA),40.914605,-124.089324,32364,42.6337942842,,
23662,DeRidder (LA),30.856066,-93.294939,13341,42.7114939276,,
76231,Rome (NY),43.233004,-75.442353,33428,56.2312318635,,
67402,Paragould (AR),36.064139,-90.510536,24620,51.4060840139,,
12592,Calipatria (CA),33.124883,-115.512646,3538,2.66250777743,,
66133,Osceola (IA),41.030517,-93.770584,4819,8.59617053821,,
66134,Osceola (WI),45.328803,-92.67199,3593,10.634491181,,
72262,Princess Anne (MD),38.203196,-75.692534,10396,9.19445779169,,
35596,Greenwood (SC),34.204904,-82.168388,42103,90.7428234337,,
27712,Ephraim (UT),39.357351,-111.581381,5781,5.69279386652,,
15076,Centralia (WA),46.729136,-122.982797,39517,81.7736946076,,
94402,West Point (MS),33.608389,-88.648618,9173,17.2622707554,,
03250,Arvin (CA),35.203012,-118.832555,19573,11.2042885653,,
89002,Tunkhannock (PA),41.551781,-75.953471,3426,8.85516934924,,
64972,Ogdensburg (NY),44.697997,-75.478287,11344,11.7559560328,,
03925,Atmore (AL),31.021931,-87.487418,6565,12.25323375,,
90514,Victoria (TX),28.826115,-96.985119,63683,75.1692249263,2222504.064,483.0
28711,Fairfield (IA),41.009403,-91.954444,10320,17.839838104,,
72640,Pukalani--Makawao--Haiku-Pauwela (HI),20.850751,-156.317382,26128,54.4648599723,,
47010,Lake Placid (FL),27.287179,-81.363124,16351,48.7901960225,,
94591,West Wendover (NV--UT),40.72305,-114.034045,5365,17.6481789838,,
47017,Lake Placid (NY),44.279914,-73.984212,3581,4.82514784956,,
89488,Union (SC),34.722504,-81.629644,10033,24.0972493786,,
76528,Roxborough Park (CO),39.468175,-105.078785,8503,6.57856980025,,
92296,Washington (IN),38.653193,-87.167395,12462,17.0084519206,,
35272,Greenville (AL),31.830744,-86.625137,6026,10.5049917755,,
94294,Westminster--Eldersburg (MD),39.488438,-76.959841,72714,149.447493943,2570122.368,412.0
34613,Gray (GA),33.001223,-83.538428,4566,9.89375458148,,
86626,Taneytown (MD),39.655905,-77.165849,6599,5.12558647035,,
43237,Johnston City (IL),37.818424,-88.926903,3621,4.06110135701,,
52822,Macon (GA),32.833366,-83.670808,137570,253.855094646,8128796.544,949.0
47000,Lake Park (GA),30.687508,-83.200745,3367,10.1501634044,,
51026,Lolo (MT),46.757538,-114.079689,2739,4.28902031072,,
04951,Bangor (ME),44.834066,-68.748807,61210,110.092624606,2591043.84,411.0
87436,Thomasville (GA),30.848482,-83.960104,24139,58.7564702711,,
93214,Wayland (MI),42.672199,-85.638804,4518,8.53660081167,,
89137,Tuscola (IL),39.800032,-88.275912,4791,7.61974502061,,
30979,Fortuna (CA),40.579704,-124.142384,13084,22.5095866669,,
23392,De Motte (IN),41.193027,-87.210945,4652,9.23330761335,,
44938,Kilgore (TX),32.399457,-94.875627,15957,45.702930195,,
74908,Ridgway (PA),41.426557,-78.732935,4410,8.0186031896,,
35690,Grifton (NC),35.38311,-77.431271,3688,14.8768917058,,
50041,Lindsay (CA),36.208703,-119.093361,14610,19.8393089252,,
21745,Cumberland (MD--WV--PA),39.647607,-78.804597,51899,84.5113120403,2138818.176,393.0
55279,Marysville (KS),39.845391,-96.642565,2937,3.90570207039,,
16102,Chesapeake Beach (MD),38.73071,-76.646639,23700,65.8478577172,,
75502,Robertsdale (AL),30.561397,-87.718939,7601,18.098836915,,
61246,Nashville (IL),38.341635,-89.384152,3238,4.12585105977,,
96778,Winterset (IA),41.336205,-94.017073,5043,4.89248754042,,
13645,Caribou (ME),46.856003,-68.00856,3974,6.34806085843,,
74692,Richmond (MI),42.810543,-82.752187,6140,8.71013001506,,
22285,Daphne--Fairhope (AL),30.597318,-87.837227,57383,143.083893156,,
77014,Rutland (VT),43.602518,-72.981685,19840,31.8128239593,,
88192,Torrington (CT),41.833896,-73.096601,42754,65.1666908442,,
59923,Mount Hood Village (OR),45.360498,-122.000969,3638,11.0385293263,,
26173,Edgerton (WI),42.839096,-89.05567,7208,13.3539786969,,
89083,Turlock (CA),37.496481,-120.859718,99904,66.7957933656,936638.208,149.0
93106,Waverly (TN),36.085749,-87.79262,3246,9.74353527108,,
96427,Winnfield (LA),31.924356,-92.645386,5376,11.056659243,,
64837,Odessa (MO),38.99684,-93.954667,5199,5.91035286779,,
97119,Woodstock (AL),33.225828,-87.110919,3664,14.9157415274,,
60868,Muskogee (OK),35.751755,-95.350144,42052,72.6232666138,,
26443,Eldon (MO),38.351041,-92.577313,4555,6.89454834971,,
34478,Granite Shoals (TX),30.605909,-98.393284,5573,13.5145579597,,
06976,Benson (MN),45.316565,-95.602636,3191,4.51434927632,,
73936,Red Springs (NC),34.804996,-79.168661,4185,7.96680342739,,
55306,Marysville (OH),40.236063,-83.370036,22348,26.7571671679,,
51337,Loogootee (IN),38.676779,-86.91344,2972,4.70600839648,,
65836,Orland (CA),39.744117,-122.196389,9282,15.1488404574,,
75475,Roaring Spring (PA),40.339521,-78.384292,7130,18.5753947273,,
32720,Gautier (MS),30.451498,-88.63762,3957,7.94090354629,,
16210,Chestertown (MD),39.214499,-76.063775,7153,10.2149131072,,
56305,Meridian (MS),32.390231,-88.699715,41531,83.6514359876,,
17344,Clarksville (TX),33.611534,-95.056076,3121,7.24678673272,,
52352,Mabton (WA),46.212947,-119.996102,2534,1.86220145133,,
56872,Middletown (IN),40.061411,-85.541539,2543,3.6078534377,,
32059,Fulton (MS),34.272094,-88.404964,3217,8.7463898486,,
35299,Greenville (IL),38.887241,-89.400454,6976,8.84739938491,,
25390,Eagle (CO),39.644582,-106.826256,6073,6.36101079899,,
80713,Sevierville (TN),35.833885,-83.554496,22108,64.8533022828,,
12052,Butte-Silver Bow (MT),45.983538,-112.516416,30287,42.7192638919,,
90865,Virginia (MN),47.511485,-92.555221,12883,16.00871651,,
14401,Casa Grande (AZ),32.908121,-111.739572,51331,57.6686752647,,
46315,La Grange (NC),35.305041,-77.790753,2713,4.64125869372,,
16588,Chipley (FL),30.777037,-85.539973,3846,9.70727543754,,
96103,Winchester (VA),39.151042,-78.16304,69449,96.3035279066,3003035.904,300.0
46045,Lafayette (LA),30.166177,-92.013554,252720,462.644396173,9453286.656,1126.0
55063,Marshall (WI),43.171193,-89.064662,3834,3.62857334258,,
57655,Minot (ND),48.23388,-101.287744,42650,58.0519935051,,
27226,El Paso (IL),40.740008,-89.014591,2776,4.14398097654,,
65944,Oroville (CA),39.499249,-121.543103,37122,63.6593177639,,
10837,Brownfield (TX),33.17654,-102.274007,9530,11.6808463776,,
93565,Weedsport (NY),43.041934,-76.586062,3112,5.05565679138,,
56278,Mercer (PA),41.22517,-80.240049,3838,3.9341919396,,
52228,Lynden (WA),48.926016,-122.470877,14533,24.1335092121,,
81172,Shelby (MT),48.506846,-111.86725,3037,3.75548275999,,
35866,Guayama (PR),17.979207,-66.093809,80155,105.492805722,1092744.576,362.0
97642,Yelm (WA),46.951183,-122.579326,12387,20.4065163213,,
17506,Clear Lake (IA),43.141886,-93.375489,7944,17.4824197448,,
44925,Kilauea (HI),22.210461,-159.406019,2611,6.36101079899,,
69022,Petoskey (MI),45.368294,-84.950693,8210,15.4622290187,,
49528,Lexington (TN),35.6653,-88.388489,6560,15.6124483291,,
52174,Lykens (PA),40.573655,-76.699208,2973,5.00385702917,,
90595,Vienna (GA),32.091931,-83.79509,3506,4.80183795656,,
21097,Crete (NE),40.624778,-96.957284,6948,6.52677003805,,
19801,Conway (AR),35.067613,-92.43724,65277,102.817348004,,
25579,Earlimart (CA),35.923815,-119.278771,13211,13.0354101593,,
27793,Erwin (TN),36.143489,-82.409338,9788,16.8142028123,,
92620,Waterloo (WI),43.18638,-88.987899,3059,3.56382363982,,
41941,Itta Bena (MS),33.498247,-90.331221,4223,4.24758050095,,
26065,Ebensburg (PA),40.484465,-78.733571,4914,7.36074620957,,
22253,Danville (VA--NC),36.609291,-79.411192,49344,107.981784296,,
16696,Chowchilla (CA),37.11481,-120.24802,11843,11.8181157475,,
28063,Eudora (KS),38.934944,-95.097399,6140,6.49828016883,,
01522,Alliance (NE),42.100596,-102.87402,8486,12.0538046655,,
70021,Planada (CA),37.288887,-120.320295,4523,2.81531707594,,
20314,Corry (PA),41.928196,-79.633098,6571,10.3858523224,,
57250,Millen (GA),32.80435,-81.940368,2827,6.65367945545,,
81712,Show Low (AZ),34.236165,-110.054448,10409,23.1415437659,,
17182,Clarion (IA),42.728561,-93.729411,2639,3.74512280755,,
85276,Sturgeon Bay (WI),44.833291,-87.374562,8617,14.2734244761,,
51202,Long Neck (DE),38.633566,-75.166052,14150,43.9080684345,,
90460,Versailles (OH),40.226198,-84.461948,3295,5.88704297479,,
64945,Ogden--Layton (UT),41.123076,-111.974899,546026,563.459683368,17572427.136,2455.0
27955,Estherville (IA),43.404042,-94.834568,6192,7.46175574588,,
46531,Lake Charles (LA),30.244735,-93.25584,143440,327.69824566,6175052.928,969.0
90282,Venus (TX),32.421634,-97.106146,3559,7.94608352251,,
85492,Sullivan City (TX),26.28038,-98.562295,5694,9.02869855263,,
62930,Newport (WA--ID),48.180595,-117.047668,2619,3.51720385384,,
27577,Emporium (PA),41.510952,-78.240839,2677,3.5327437825,,
37513,Hastings (MI),42.658914,-85.296358,7713,12.1444542494,,
95428,Williamson (WV--KY),37.673684,-82.281292,3425,5.43120506737,,
84385,Stanwood (WA),48.245363,-122.342081,6289,7.00850782657,,
60684,Munising (MI),46.380374,-86.656694,2972,8.50034097812,,
49636,Liberal (KS),37.044679,-100.935296,20329,23.9496200563,,
63406,Norfolk (NE),42.035698,-97.419866,26769,31.9060635312,,
68131,Paxton (IL),40.46707,-88.091851,4916,6.56820984781,,
52579,McGehee (AR),33.621962,-91.393995,3898,6.93080818326,,
56899,Middletown (NY),41.450288,-74.389639,58381,81.1054776752,,
45505,Klamath Falls--Altamont (OR),42.207355,-121.756334,41434,56.7233296045,,
46990,Lake Panasoffkee (FL),28.79216,-82.129488,3365,6.28072116756,,
44803,Keyser (WV--MD),39.430272,-78.99264,7040,9.84454480739,,
52687,McKinney (TX),33.204773,-96.676668,170030,191.923298952,4033016.064,359.0
81002,Shannondale (WV),39.216662,-77.810191,2577,6.73655907498,,
53956,Manitowoc (WI),44.116914,-87.653992,46360,64.3016348153,,
68698,Perry (NY),42.712378,-78.009613,3688,4.2605304415,,
57439,Milton--Lewisburg (PA),40.947364,-76.85692,30806,57.1791675119,,
46693,Lake Geneva (WI),42.590575,-88.475529,14649,35.6978061248,,
63001,New Roads (LA),30.692198,-91.458663,7947,21.0695532776,,
45532,Knightstown (IN),39.800521,-85.528955,2923,4.00412161858,,
60328,Mount Vernon (IL),38.3179,-88.918401,16008,27.8475521623,,
67537,Paris (TN),36.300731,-88.304718,10642,26.1899597717,,
53227,Madisonville (KY),37.322816,-87.49367,24809,48.966315214,,
58789,Monticello (IA),42.239408,-91.19004,3180,2.957766422,,
11836,Burney (CA),40.883756,-121.665539,3171,5.24472592343,,
90136,Vandalia (IL),38.974564,-89.110695,7309,10.8416902299,,
20908,Crescent City (CA),41.784267,-124.183969,18976,30.7612887865,,
04222,Augusta-Richmond County (GA--SC),33.487951,-81.996378,386787,672.161484359,15821460.864,2461.0
53794,Mandeville--Covington (LA),30.433732,-90.106617,88925,169.892860086,3337779.456,459.0
63244,Nicholasville (KY),37.876913,-84.580638,28058,27.6558930422,,
37891,Hazlehurst (GA),31.864841,-82.600961,4594,10.4324721084,,
49987,Lincolnton (NC),35.474126,-81.230399,22686,76.4383191003,,
60625,Muncie (IN),40.197161,-85.403847,90580,120.866975145,3181673.088,617.0
63082,Newton (IA),41.699249,-93.043888,15655,21.4347416011,,
09784,Brazoria (TX),29.058564,-95.585174,3908,7.89687374841,,
14995,Central City--Greenville (KY),37.201551,-87.170819,9943,20.1293875935,,
08650,Blytheville (AR),35.930795,-89.924251,18219,23.5922016971,,
39700,Homerville (GA),31.038788,-82.751975,2690,5.35609541217,,
18964,Columbia (SC),34.036236,-81.077207,549777,984.26023163,21280355.712,2322.0
02683,Antioch (CA),37.991687,-121.78212,277634,210.724022645,6292535.04,713.0
09271,Boston (MA--NH--RI),42.373132,-71.140708,4181019,4852.22876524,150826110.336,17103.0
58816,Monticello (KY),36.840224,-84.847136,6716,14.7551622646,,
70750,Poolesville (MD),39.137918,-77.404871,4620,7.09397743421,,
02440,Andrews (SC),33.45093,-79.56202,3903,7.78032428345,,
33436,Glasgow (KY),36.997889,-85.925425,13569,24.9545354431,,
44209,Keene (NH),42.939069,-72.28811,22510,27.9045319008,,
36973,Harrington (DE),38.92428,-75.563269,4448,7.56276528218,,
01792,Altoona (PA),40.485263,-78.393865,79930,96.8500153979,2243425.536,499.0
71371,Port Lavaca (TX),28.618005,-96.631836,11817,14.2863744166,,
40969,Idabel (OK),33.890434,-94.820373,5940,11.5176771267,,
59815,Mount Airy (NC--VA),36.507243,-80.614222,19457,61.9861854447,,
03331,Asheboro (NC),35.731271,-79.804262,37792,85.2857184853,,
86410,Tahoka (TX),33.165768,-101.799158,2560,3.71663293833,,
71155,Port Huron (MI),42.958172,-82.485706,87106,156.551831329,2856585.6,532.0
26848,Elkin (NC),36.248754,-80.852281,6521,17.2415508505,,
33544,Glennville (GA),31.929703,-81.9238,3161,7.70521462825,,
60517,Mukwonago (WI),42.88289,-88.374566,20255,56.5135405675,,
80848,Seymour (Outagamie County) (WI),44.51247,-88.328711,3500,5.70315381896,,
77095,Safford (AZ),32.836829,-109.745538,19151,34.0117238649,,
05958,Bealeton (VA),38.567378,-77.786511,6621,9.54151619848,,
04130,Auburn--North Auburn (CA),38.929947,-121.081669,33157,69.2355621655,,
28522,Fabens (TX),31.505886,-106.153246,8042,4.3356400967,,
54847,Marlow (OK),34.646905,-97.95946,4230,4.73967824191,,
48070,Laurel (MT),45.678364,-108.761767,8505,16.948882194,,
62758,Newport (AR),35.612144,-91.262068,6288,11.7404161042,,
54334,Marble Falls (TX),30.577185,-98.280159,6131,9.41978675729,,
87382,Thomaston (GA),32.907686,-84.327881,14416,26.9799061454,,
74746,Richmond (VA),37.477942,-77.487983,953556,1274.71185828,42509212.416,5035.0
68644,Perry (IA),41.83983,-94.107228,7628,11.173208708,,
78026,St. Simons (GA),31.179098,-81.384254,12226,23.2244233854,,
21502,Crystal City (TX),28.691898,-99.826449,7236,8.37861153694,,
96994,Woodland (CA),38.673293,-121.761641,55513,31.5926749699,,
83386,South Vacherie (LA),29.93539,-90.694187,2621,3.82541243897,,
42751,Jasper (TX),30.92025,-94.001235,7790,23.004274396,,
00334,Abingdon (IL),40.804182,-90.40152,3389,3.73217286699,,
83548,Spartanburg (SC),34.974865,-81.989514,180786,492.180620583,8088562.944,1177.0
32113,Gadsden (AL),33.982171,-86.013753,64172,186.577563492,3891393.792,920.0
83899,Springfield (IL),39.786626,-89.642412,161316,239.149142156,6443813.376,1098.0
80686,Sequim (WA),48.093919,-123.136469,19286,63.2993094166,,
07030,Benton (IL),37.999962,-88.918322,7778,11.0540692549,,
23797,De Soto (MO),38.124076,-90.562681,7203,10.5024017874,,
68860,Peshtigo (WI),45.055593,-87.745894,3441,6.10978195228,,
15481,Charleston (WV),38.380422,-81.691011,153199,254.37050228,10219334.4,1249.0
18181,Cloverdale (CA),38.803365,-123.015911,9166,8.72566994372,,
83368,South Paris (ME),44.21559,-70.521238,4780,11.6575364846,,
72073,Prescott (AR),33.800707,-93.381436,2773,4.81996787334,,
40213,Hot Springs (AR),34.471443,-93.078752,55121,116.350035881,2257909.632,470.0
18343,Cobleskill (NY),42.682127,-74.49908,5618,8.17141248811,,
50213,Litchfield (CT),41.740678,-73.215193,2590,8.31386183418,,
57763,Missouri Valley (IA),41.560065,-95.891384,2819,3.48871398462,,
86707,Tarboro (NC),35.90199,-77.545556,13581,22.4836867858,,
85870,Susanville (CA),40.409559,-120.636967,10285,13.7839167232,,
03790,Athol (MA),42.573322,-72.296365,12834,24.2189788198,,
95347,Willcox (AZ),32.254941,-109.837651,3671,4.39520982324,,
62110,New Castle (CO),39.576022,-107.534424,5449,6.07611210685,,
31762,Fremont (NE),41.440935,-96.494819,27471,28.2308704027,,
09892,Bremen (GA),33.719956,-85.145977,6516,17.6507689719,,
42616,Jasper (AL),33.85154,-87.265084,14156,51.2040649413,,
24364,Dodgeville (WI),42.965515,-90.130641,4756,7.90723370086,,
65296,Omak (WA),48.401847,-119.533298,8229,12.2661836906,,
06571,Belle Plaine (MN),44.620047,-93.7646,6174,6.73396908687,,
77932,St. Marys--Kingsland (GA),30.779791,-81.608227,34630,81.0977077108,,
40321,Houghton Lake (MI),44.297204,-84.764058,8300,23.0612541344,,
08434,Bloomsburg--Berwick (PA),41.016958,-76.41213,53618,84.6537613863,,
68266,Pecos (TX),31.412033,-103.504973,11785,16.6536235495,,
44371,Kendallville (IN),41.446816,-85.263723,10399,13.80204664,,
05140,Barnesville (OH),39.988942,-81.172519,4351,5.15407633957,,
37648,Havana (IL),40.294823,-90.060463,3302,5.82747324826,,
49744,Ligonier (PA),40.245852,-79.213608,3314,7.27268661382,,
18748,College Station--Bryan (TX),30.626675,-96.331052,171345,184.987310793,5368771.584,778.0
79579,Saranac Lake (NY),44.324583,-74.130354,7698,11.5617069245,,
97129,Woodstock (IL),42.311207,-88.440698,25308,31.2611564918,,
88526,Trinity (TX),30.952788,-95.371735,3320,10.9116199088,,
12872,Cambridge (WI),43.002181,-89.002427,2577,4.52988920498,,
34516,Grants Pass (OR),42.429804,-123.321705,50520,70.4347266606,,
66943,Pahrump (NV),36.192391,-116.004181,28446,114.329845155,,
77338,St. Cloud (MN),45.57389,-94.194721,110621,130.133952604,4039453.44,662.0
50851,Lodi (CA),38.138811,-121.275459,68738,41.2067108354,2051913.6,291.0
28387,Evarts (KY),36.862957,-83.204407,2646,3.85390230818,,
62326,Newfane (NY),43.286059,-78.706512,5626,12.5433124184,,
23122,Dell Rapids (SD),43.827668,-96.716352,3584,3.76843270054,,
30385,Forestville (CA),38.48697,-122.905772,5144,11.2250084702,,
87733,Tipton (MO),38.655059,-92.781266,3201,3.29187488824,,
92512,Waterbury (VT),44.348492,-72.739122,2971,7.67931474715,,
72181,Preston (ID),42.093177,-111.870094,4323,7.75960437857,,
40456,Houtzdale (PA),40.82372,-78.356126,4081,4.13621101221,,
18478,Coffeyville (KS--OK),37.033824,-95.629703,10909,17.5471694475,,
31492,Frazier Park (CA),34.819042,-118.945278,3657,6.54230996671,,
48502,Lebanon (IN),40.051769,-86.472317,15415,16.8789525151,,
34192,Grand Bay (AL),30.504207,-88.315189,4127,13.6233374604,,
25984,Eaton Rapids (MI),42.505596,-84.65451,5408,10.3340525602,,
14536,Cassville (MO),36.688323,-93.870102,4084,10.7251407649,,
28090,Eufaula (AL--GA),31.879574,-85.141788,9520,19.2902314458,,
91081,Wadena (MN),46.439874,-95.13824,3927,5.8145233077,,
07813,Bisbee (AZ),31.392958,-109.920071,5541,8.07817291614,,
72856,Purcellville (VA),39.135254,-77.713215,11951,16.6458535851,,
67321,Paola (KS),38.576048,-94.871383,5399,7.441035841,,
31168,Fowlerville (MI),42.656363,-84.086022,3794,9.5725960558,,
00118,Aberdeen (MS),33.824742,-88.554591,4666,7.417725948,,
06814,Belzoni (MS),33.181941,-90.490257,4702,5.95956264188,,
17884,Clinton (IL),40.155826,-88.963843,8487,11.385587733,,
29656,Fernley (NV),39.59806,-119.228934,18979,26.7571671679,,
66052,Osage (IA),43.283015,-92.809954,3535,4.95205726696,,
55468,Massena (NY),44.933374,-74.890122,11259,15.8740371282,,
72694,Pulaski (VA),37.050962,-80.758368,16066,31.1938168009,,
90028,Vallejo (CA),38.10948,-122.212096,165074,108.807990503,5347850.112,483.0
26524,El Dorado (KS),37.815099,-96.851849,14724,23.4316224342,,
06787,Belvidere (NJ--PA),40.825338,-75.071549,3881,5.81970328392,,
47071,Lakeport (CA),39.131923,-122.862791,16583,26.9617762286,,
23230,Delta (CO),38.746594,-108.061647,7849,14.7163124429,,
32248,Galax (VA),36.66996,-80.910802,6915,15.3948893278,,
82387,Skowhegan (ME),44.778118,-69.712178,4751,8.00565324905,,
92350,Washington (MO),38.543654,-91.008985,14316,17.9512075927,,
91702,Wapato (WA),46.446011,-120.427177,7607,6.89454834971,,
08920,Bonham (TX),33.588004,-96.184028,9995,13.4938380549,,
73585,Raymond (WA),46.663599,-123.787958,4082,6.666629396,,
82144,Simi Valley (CA),34.269707,-118.746872,125206,81.4085062841,4113483.264,334.0
32869,Genoa (IL),42.08858,-88.703055,6413,7.05253762444,,
82414,Slaton (TX),33.435263,-101.649413,5938,6.54230996671,,
52714,McLeansboro (IL),38.093557,-88.538594,2698,3.88239217739,,
73612,Raymondville (TX),26.463303,-97.779216,14481,15.3171896845,,
19882,Coolidge (AZ),32.977829,-111.53151,10919,10.914209897,,
66430,Owatonna (MN),44.090331,-93.222543,25394,32.9990385138,,
56116,Memphis (TN--MS--AR),35.095071,-89.917857,1060061,1288.02180717,42826253.184,4805.0
24580,Dover (DE),39.147328,-75.543831,110769,191.73422982,3340998.144,447.0
39457,Hollandale (MS),33.178325,-90.857672,2612,3.39547441265,,
31384,Franklin (NC),35.185666,-83.384673,6781,23.6776713047,,
61651,New Albany (MS),34.496911,-89.028819,6632,15.6538881389,,
50257,Litchfield (MN),45.128039,-94.522422,6624,8.79300963459,,
49366,Lewistown (MT),47.06495,-109.431603,6090,5.69538385463,,
35488,Greenville (TX),33.124169,-96.109955,23283,31.336266147,,
74044,Reedley--Dinuba (CA),36.572633,-119.423387,46247,29.6734937801,,
60301,Mount Union (PA),40.382369,-77.871283,3859,6.10201198795,,
61478,Nelson (GA),34.377527,-84.388052,4091,11.6290466154,,
11161,Buckhannon (WV),38.985413,-80.225747,8731,16.0138964862,,
77068,Sacramento (CA),38.638578,-121.324669,1723634,1219.82742023,56264275.584,5109.0
88678,Truth or Consequences (NM),33.135927,-107.227282,7918,19.458580673,,
32599,Garner (IA),43.099499,-93.604622,3115,4.17506083386,,
15319,Chardon (OH),41.572344,-81.20909,8028,23.309892993,,
93484,Weatherford (TX),32.753386,-97.723748,34824,83.2007780564,,
22528,Dayton (OH),39.754825,-84.16816,724091,910.225421496,30838249.728,3829.0
77797,St. Maries (ID),47.316543,-116.574805,2608,3.40324437698,,
78931,Sanger (CA),36.696561,-119.565042,26604,14.6204828828,,
76825,Rusk (TX),31.801532,-95.151859,4691,8.05227303503,,
96454,Winnie (TX),29.811385,-94.380807,3901,10.7769405271,,
69526,Pine Island (MN),44.19811,-92.628467,2945,5.23436597099,,
97102,Woodruff (SC),34.73827,-82.028064,4298,8.73861988427,,
89218,Twentynine Palms Base (CA),34.228119,-116.055384,8384,9.4715865195,,
47503,Lancaster (OH),39.725886,-82.600239,42557,55.7184142177,,
11242,Buena Vista (CO),38.831749,-106.133048,4483,9.97145422479,,
92998,Waupun (WI),43.628934,-88.735186,11373,9.5725960558,,
72829,Purcell (OK),35.018265,-97.378761,6877,10.4013922511,,
96292,Windsor (VT--NH),43.455764,-72.399157,2704,6.94634811192,,
46477,Lake Arthur (LA),30.083429,-92.675865,2786,4.28643032261,,
24634,Dowagiac (MI),41.982547,-86.108166,6082,9.03128854074,,
16021,Cherokee (IA),42.754457,-95.551834,4662,4.74485821814,,
51322,Lonsdale (MN),44.48007,-93.426335,3466,4.91579743342,,
60274,Mount Sterling (KY),38.055763,-83.949327,10835,15.1825103028,,
55846,Mayville (WI),43.496015,-88.547726,5134,6.12273189283,,
32734,Gaylord (MI),44.989329,-84.680719,8298,26.430828666,,
52363,McAlester (OK),34.930306,-95.756657,19501,26.8141469063,,
96670,Winston-Salem (NC),36.072205,-80.266476,391024,835.486134597,18270882.432,2228.0
17371,Claxton (GA),32.160363,-81.917014,4259,8.19213239299,,
15967,Cheney (WA),47.490567,-117.583303,10569,7.98493334417,,
43480,Junction (TX),30.490759,-99.773222,2566,6.15381175016,,
55684,Mauston (WI),43.797318,-90.073367,4401,6.59928970514,,
83818,Spout Springs (NC),35.274379,-79.048471,14488,45.679620302,,
64135,Norwich--New London (CT--RI),41.396715,-72.073311,209190,393.654882878,9612611.712,1269.0
80704,Severance (CO),40.525591,-104.852951,2670,4.03002149968,,
92971,Waupaca (WI),44.348699,-89.104333,7755,16.573333918,,
02305,Anchorage (AK),61.167898,-149.847155,251243,220.102369593,5458894.848,1246.0
25363,Eagar (AZ),34.114155,-109.284576,6095,16.1097260463,,
38971,Hillsborough (NH),43.129732,-71.898945,3884,8.02637315393,,
82562,Smithton (IL),38.393333,-89.994982,3720,6.15899172638,,
56791,Middleport (OH--WV),39.034652,-82.032419,8559,18.1480466891,,
88273,Tracy (CA),37.729504,-121.434051,87569,57.6427753836,473147.136,118.0
23905,Devine (TX),29.148347,-98.897989,5798,11.3104780778,,
01009,Albert Lea (MN),43.656119,-93.379007,17868,25.5139728749,,
80767,Seward (NE),40.913766,-97.092726,6636,6.90231831405,,
51920,Lucedale (MS),30.908997,-88.598765,2636,6.53712999049,,
96076,Winchester (TN),35.207049,-86.107098,11681,40.0308562334,,
82360,Skiatook (OK),36.363587,-96.016739,6768,9.61403586557,,
51142,Long Beach (MD),38.464565,-76.491882,6476,15.4907188879,,
25768,East Palestine (OH),40.838975,-80.541662,4944,8.44077125159,,
94942,Whitesboro (TX),33.662974,-96.900684,3959,6.87123845672,,
81496,Shepherdstown (WV--MD),39.438713,-77.786541,4856,9.272157435,,
86842,Teague (TX),31.628549,-96.282107,3363,8.29832190552,,
64577,Ocala Estates (FL),29.19393,-82.320981,2939,6.02949232086,,
60058,Mount Orab (OH),39.026273,-83.929185,3030,7.08879745799,,
63136,Newton (MS),32.321816,-89.159697,2810,7.54463536541,,
85390,Sugarmill Woods (FL),28.724451,-82.534294,8816,27.1456653844,,
95509,Williamston (NC),35.849217,-77.063417,5361,8.4951610019,,
30007,Florence (CO),38.359104,-105.098177,7314,10.0750537492,,
13402,Canton (SD),43.302592,-96.588259,2679,2.981076315,,
16223,Chetek (WI),45.312024,-91.646524,2830,7.36333619769,,
07354,Bethany (MO),40.265875,-94.035182,2652,3.96786178503,,
95725,Willows (CA),39.524858,-122.199495,7346,6.73396908687,,
02278,Anamosa (IA),42.110072,-91.276047,5497,5.46487491281,,
16372,Childress (TX),34.427361,-100.213205,4707,7.01109781468,,
70372,Plymouth (WI),43.755112,-87.978972,8799,12.1107844039,,
42373,Jacksonville (IL),39.729898,-90.235699,22669,30.1966713784,,
25025,Dunlap (TN),35.377171,-85.388175,3691,11.3493278995,,
66160,Oshkosh (WI),44.026834,-88.563524,74495,79.787173727,2294924.544,382.0
45436,Kirtland (NM),36.740734,-108.358498,8200,25.7885116146,,
74260,Rexburg (ID),43.827287,-111.785653,26852,18.2412862611,,
80632,Seminole (TX),32.717036,-102.652437,6477,7.86579389109,,
85465,Sullivan (MO),38.196375,-91.19024,9114,18.3008559876,,
06679,Bellows Falls (VT--NH),43.124336,-72.449947,5713,10.1501634044,,
57223,Milledgeville (GA),33.108299,-83.246751,29808,88.1347054066,,
26275,Edwards (CO),39.644737,-106.564801,17326,22.0123089497,,
46450,La Junta (CO),37.984384,-103.550201,8191,9.8730346766,,
56089,Melrose (MN),45.676243,-94.817765,3121,3.40065438887,,
75799,Rockland (ME),44.117087,-69.115876,8775,16.1900156777,,
20595,Cottonwood--Verde Village (AZ),34.728478,-112.014829,26650,37.6454771837,,
13510,Cape Coral (FL),26.602515,-81.842109,530290,855.498972725,20850660.864,2716.0
35704,Grinnell (IA),41.74279,-92.724935,9080,10.3858523224,,
42103,Jackson (KY),37.557937,-83.377908,2567,5.60214428266,,
57358,Millsboro (DE),38.568886,-75.279908,9395,27.8708620553,,
53308,Madras (OR),44.621502,-121.13653,8010,13.7968666638,,
63433,Norman (OK),35.213842,-97.445176,103898,116.230896428,,
10351,Bristol--Bristol (TN--VA),36.604532,-82.152878,69501,165.471750381,3580790.4,679.0
45181,Kingsland (TX),30.662134,-98.451608,6433,23.3487428147,,
27928,Estes Park (CO),40.363508,-105.518915,7082,19.4041909226,,
90730,Vineland (NJ),39.480685,-75.027891,95259,160.32026403,3884956.416,684.0
62920,Newport (VT),44.935595,-72.205827,4004,7.16390711319,,
64378,Oak Harbor (WA),48.308868,-122.649637,33004,77.5623739402,,
17155,Clarinda (IA),40.739111,-95.038714,5415,6.15899172638,,
53092,Madison (IN--KY),38.774141,-85.375692,18271,35.7003961129,,
39821,Honeoye Falls (NY),42.917051,-77.613051,5270,11.9398451886,,
05545,Batesville (AR),35.7706,-91.633541,11513,23.8382505675,,
38809,High Point (NC),35.941475,-80.011204,166485,292.653116539,8004877.056,1305.0
07219,Berlin (WI),43.971548,-88.945505,4891,6.02690233275,,
74314,Rhinebeck (NY),41.929031,-73.906792,3032,5.17220625634,,
09460,Box Elder (SD),44.127283,-103.075728,7885,20.9400538721,,
90631,Village of Four Seasons (MO),38.199622,-92.705429,4451,21.8387797464,,
71911,Prairie Grove (AR),35.979665,-94.314306,3213,3.90052209417,,
84024,Spring Hill (FL),28.488678,-82.523756,148220,297.79165295,,
01657,Almont (MI),42.921599,-83.039777,2719,3.79433258164,,
45667,Kodiak (AK),57.803411,-152.372663,9335,8.93286899255,,
52147,Luverne (MN),43.655807,-96.211957,4620,5.20587610178,,
36298,Halls (TN),35.876791,-89.392604,2735,5.51408468691,,
12268,Cairo (IL),37.014285,-89.180289,2833,4.90025750476,,
46234,LaGrange (GA),33.033731,-85.037473,34879,76.264789897,,
42978,Jefferson Township North (NJ),41.033097,-74.512051,13714,31.4036058378,,
03871,Atlantic (IA),41.40042,-95.007871,6471,7.30117648304,,
80524,Selma (AL),32.410173,-87.034653,23821,43.7112293381,,
53767,Manchester (TN),35.480117,-86.072463,11379,27.5315736129,,
04549,Avondale--Goodyear (AZ),33.472717,-112.399026,197041,227.703984696,5071042.944,641.0
45761,Krum (TX),33.257011,-97.216329,4173,4.4107497519,,
31195,Frankenmuth (MI),43.332753,-83.737571,4972,7.1172873272,,
20935,Crescent City (FL),29.479776,-81.540949,2812,12.6728118239,,
05896,Bay City (TX),28.980702,-95.954928,18745,24.2034388911,,
14833,Cedarville (OH),39.748424,-83.812177,4041,2.7065375753,,
91918,Warrenton (MO),38.819056,-91.137933,9079,15.9957665694,,
09865,Breese (IL),38.5925,-89.532021,5800,11.8673255216,,
58972,Moodus (CT),41.496252,-72.435511,2701,10.1734732974,,
41401,International Falls (MN),48.591808,-93.384879,7055,17.8113482348,,
42994,Jena (LA),31.689589,-92.132576,3992,11.4943672337,,
96859,Wolf Point (MT),48.092179,-105.641894,3540,3.19086535193,,
97696,Yoakum (TX),29.29305,-97.147718,5624,7.43844585288,,
48664,Lebanon (PA),40.351244,-76.405113,77086,116.74889405,1338974.208,370.0
45640,Knoxville (TN),35.91678,-84.024448,558696,1134.79293059,26259666.048,3506.0
89920,Vail (CO),39.632476,-106.404279,5823,8.21026230977,,
49447,Lexington (MO),39.181157,-93.872665,4507,6.43094047796,,
22995,Delano (MN),45.038421,-93.787214,5255,7.68449472337,,
37432,Hartwell (GA),34.352808,-82.931293,5884,15.0400609567,,
44587,Kerman (CA),36.727308,-120.062073,13487,6.52159006183,,
90703,Vincennes (IN),38.675474,-87.505022,21302,28.2360503789,,
04303,Aurora (NE),40.867831,-98.003674,4466,5.46487491281,,
45343,Kingwood (WV),39.471697,-79.681148,3201,5.9880525111,,
45613,Knoxville (IA),41.320125,-93.104533,7346,8.43818126347,,
33409,Gladwin (MI),43.98397,-84.487229,2934,7.03440770767,,
13221,Canby (OR),45.265185,-122.68825,17119,12.9525305398,,
84736,Steeleville (IL),38.014504,-89.630125,3469,6.25223129835,,
54307,Marathon (FL),24.732462,-81.024049,8965,21.2741623383,,
86464,Tallahassee (FL),30.473181,-84.268853,240223,327.625725993,10220943.744,1187.0
44560,Keokuk (IA--IL),40.40752,-91.386209,13411,22.0900085931,,
18991,Columbia (TN),35.61573,-87.0629,34965,64.2912748629,,
03655,Athens (AL),34.8122,-86.951898,24956,69.9996086581,,
08137,Blair (NE),41.544788,-96.132528,7844,10.3936222868,,
03304,Ashdown (AR),33.679701,-94.126094,4146,9.26438747067,,
04438,Avalon (CA),33.341589,-118.328722,3652,3.43432423431,,
54658,Marion (OH),40.580054,-83.114254,46384,71.8825300143,,
12916,Camden (AR),33.559932,-92.84588,11401,30.7198489767,,
30171,Foley (AL),30.349787,-87.686189,26469,78.4093000523,,
05437,Bastrop (LA),32.776783,-91.913851,13979,26.101900176,,
14239,Carthage (MS),32.745524,-89.536348,4478,10.751040646,,
40537,Hudson (NY),42.271732,-73.763593,11512,14.7137224548,,
94753,Whitefish (MT),48.406373,-114.34041,6300,11.6756664014,,
62218,Newcomerstown (OH),40.274247,-81.602746,4170,5.9129428559,,
71965,Pratt (KS),37.646137,-98.736514,6546,7.12246730342,,
41536,Ionia (MI),42.980922,-85.069012,14409,18.5184149889,,
40915,Hutchinson (KS),38.069334,-97.915193,44320,55.8919434211,,
43021,Jennings (LA),30.229007,-92.653808,9869,18.3889155834,,
29737,Findlay (OH),41.052566,-83.64058,48441,61.8929458727,,
30574,Fort Bragg (CA),39.427453,-123.793794,10348,20.2200371774,,
78580,San Antonio (TX),29.514965,-98.475662,1758210,1546.48449067,61391645.568,6097.0
15832,Chattanooga (TN--GA),35.058647,-85.211135,381112,777.338311531,18713452.032,2788.0
71560,Port Townsend (WA),48.118123,-122.786075,8400,12.3879131317,,
40132,Hornell (NY),42.342874,-77.667561,10997,13.6285174366,,
84601,Staunton (IL),39.001701,-89.776875,6134,12.8826008608,,
13132,Camilla (GA),31.215018,-84.188456,6939,13.8538464022,,
96508,Winnsboro (SC),34.370989,-81.088054,5141,10.0051240702,,
09082,Booneville (AR),35.138439,-93.920088,3335,4.98313712429,,
17452,Clearfield (PA),41.014806,-78.4388,10903,14.5712731088,,
93871,Wendell (ID),42.775682,-114.704722,2756,2.54595831246,,
89731,Upper Sandusky (OH),40.831936,-83.275742,6055,7.95126349873,,
15940,Chelsea (MI),42.311138,-84.01704,5329,10.9064399326,,
40267,Hot Springs Village (AR),34.661302,-92.96831,9144,36.995390168,,
24796,DuBois (PA),41.11929,-78.76262,11898,17.6015591978,,
59518,Moses Lake (WA),47.149902,-119.305972,32978,68.8651938657,,
04054,Auburn (IL),39.590007,-89.749535,4433,5.20328611367,,
58573,Montezuma (GA),32.302593,-84.030703,6900,15.3145996964,,
94456,West Point (VA),37.550722,-76.81298,2675,4.80960792089,,
50635,Livingston (TN),36.3892,-85.323649,3485,8.64279032419,,
28468,Everson (WA),48.908535,-122.346098,4330,7.96162345117,,
91135,Wagoner (OK),35.954522,-95.38138,8043,12.276543643,,
48485,Leavenworth (WA),47.58695,-120.664741,3282,9.43791667406,,
45964,Ladysmith (WI),45.468966,-91.103261,3449,6.83756861129,,
79741,Savanna (IL--IA),42.089408,-90.153584,3362,5.10227657736,,
94915,White Rock (NM),35.816464,-106.206075,5039,4.90802746909,,
59680,Mountain Home (AR),36.344962,-92.376861,14180,28.5468489521,,
95563,Williamstown (PA),40.584476,-76.58313,4596,5.21364606611,,
83089,Soperton (GA),32.37269,-82.596427,2832,6.42835048985,,
26983,Ellensburg (WA),47.001313,-120.536084,20987,22.9291647408,,
40861,Huron (SD),44.363507,-98.221582,12637,18.6297844776,,
00280,Abilene (TX),32.428466,-99.747188,110421,141.755229255,4012094.592,846.0
03493,Ashville (OH),39.718439,-82.967332,6222,14.3070943215,,
03277,Ashburn (GA),31.700815,-83.650095,4489,8.18695241677,,
34072,Graceville (FL),30.957572,-85.504494,4037,7.10951736287,,
12862,Cambridge (OH),40.017438,-81.578297,15232,25.5010229344,,
89866,Vacaville (CA),38.364178,-121.967724,93141,70.9889841162,3162360.96,340.0
88516,Trinidad (CO),37.170726,-104.507446,9181,15.2135901601,,
50797,Lockport (NY),43.162301,-78.678358,36024,49.9297907911,,
89029,Tupelo (MS),34.248242,-88.729971,40995,123.120264801,,
27739,Ephrata (WA),47.312647,-119.550209,6956,7.51873548431,,
20206,Corning (CA),39.93039,-122.178433,8553,10.0128940346,,
10675,Brooklyn (MI),42.102068,-84.27483,2773,7.67413477093,,
92566,Waterloo (IL),38.335899,-90.154322,9604,15.2731598867,,
87706,Tipton (IA),41.77161,-91.126697,3067,3.65447322368,,
08515,Bluefield (WV--VA),37.246327,-81.322235,44092,110.038234856,,
59194,Morehead City (NC),34.73783,-76.860011,44798,123.620132506,,
37232,Hart (MI),43.693624,-86.374801,2556,5.13335643469,,
50338,Little Falls (NY),43.044835,-74.856688,4956,10.0621038087,,
97812,Yorkville (GA),33.904163,-85.004345,3289,10.0258439751,,
73828,Red Hook (NY),42.005062,-73.893584,6661,18.3759656428,,
03547,Astoria (OR),46.17404,-123.835724,14115,23.5999716614,,
28262,Eureka (MO),38.499469,-90.632649,11260,25.4544031484,,
50446,Littleton (NH),44.30505,-71.76857,3518,6.58892975269,,
44965,Kill Devil Hills (NC),36.107834,-75.734288,19095,63.3433392145,,
67882,Patton (PA),40.625593,-78.676818,2798,6.45166038285,,
31158,Four Corners (MT),45.662017,-111.189813,2527,7.94608352251,,
31627,Fredericktown (MO),37.559928,-90.289409,4217,6.04762223763,,
97480,Yadkinville (NC),36.129775,-80.664058,3530,9.70209546132,,
78769,Sandusky (OH),41.420209,-82.680777,48990,78.4222499929,,
31150,Four Corners (FL),28.400095,-81.674679,35549,87.3784288784,,
79417,Santa Maria (CA),34.911814,-120.438878,130447,75.4385836898,3556650.24,363.0
66060,Osage Beach (MO),38.16126,-92.628359,3706,12.8981407895,,
22609,Dayton (WA),46.317713,-117.977905,2681,3.72181291455,,
33463,Glasgow (MT),48.209601,-106.621637,3301,10.5826914188,,
32451,Galt (CA),38.269409,-121.300328,24912,20.6059454058,,
